"name_en","postcode","latitude","longitude"
"Akkaraipattu","32400","7.21842790","81.85411610"
"Ambagahawatta","90326","7.30175630","81.67472950"
"Ampara","32000","7.30175630","81.67472950"
"Bakmitiyawa","32024","7.02963180","81.68020540"
"Deegawapiya","32006","7.30175630","81.67472950"
"Devalahinda","32038","7.30175630","81.67472950"
"Digamadulla Weeragoda","32008","7.39012540","81.69658760"
"Dorakumbura","32104","7.35886970","81.30142840"
"Gonagolla","32064","7.43037350","81.55892520"
"Hulannuge","32514","6.92847170","81.65467140"
"Kalmunai","32300","7.39567810","81.83336560"
"Kannakipuram","32405","7.49350210","81.79578880"
"Karativu","32250","7.37702820","81.84150650"
"Kekirihena","32074","7.50745450","81.33512840"
"Koknahara","32035","7.22390810","81.56234740"
"Kolamanthalawa","32102","7.29429160","81.27941230"
"Komari","32418","6.98626030","81.86477870"
"Lahugala","32512","6.87208720","81.72262980"
"Irakkamam","32450","7.24424420","81.74588450"
"Mahaoya","32070","7.53121600","81.35609520"
"Marathamune","32314","7.30175630","81.67472950"
"Namaloya","32037","7.33119270","81.53221490"
"Navithanveli","32308","7.42577260","81.77456990"
"Nintavur","32340","7.32116800","81.85785230"
"Oluvil","32360","7.29444730","81.86068210"
"Padiyatalawa","32100","7.39251260","81.24362270"
"Pahalalanda","32034","7.22268810","81.58980160"
"Panama","32508","6.75805890","81.80877210"
"Pannalagama","32022","7.30175630","81.67472950"
"Paragahakele","32031","7.25777050","81.60898730"
"Periyaneelavanai","32316","7.45160600","81.81423800"
"Polwaga Janapadaya","32032","7.24344700","81.55690030"
"Pottuvil","32500","6.87527060","81.83063340"
"Sainthamaruthu","32280","7.39304920","81.83609770"
"Samanthurai","32200","7.35748410","81.79510540"
"Serankada","32101","7.45677530","81.27872420"
"Tempitiya","32072","7.62289350","81.37293720"
"Thambiluvil","32415","7.12851220","81.84861640"
"Tirukovil","32420","7.11531220","81.85248820"
"Uhana","32060","7.36303600","81.63527700"
"Wadinagala","32039","7.12631470","81.57335280"
"Wanagamuwa","32454","7.30175630","81.67472950"
"Angamuwa","50248","8.18133110","80.20703280"
"Anuradhapura","50000","8.31135180","80.40365080"
"Awukana","50169","8.01014200","80.51311560"
"Bogahawewa","50566","8.32554500","80.24885960"
"Dematawewa","50356","8.28333300","80.58333300"
"Dimbulagala","51031","7.85934130","81.10305730"
"Dutuwewa","50393","8.62798020","80.86545340"
"Elayapattuwa","50014","8.35534470","80.39647510"
"Ellewewa","51034","7.78077700","81.07822530"
"Eppawala","50260","8.14409500","80.41187210"
"Etawatunuwewa","50584","8.31135180","80.40365080"
"Etaweeragollewa","50518","8.61460480","80.53828890"
"Galapitagala","32066","8.09808990","80.68262540"
"Galenbindunuwewa","50390","8.29213380","80.71728370"
"Galkadawala","50006","8.25944620","80.14425400"
"Galkiriyagama","50120","7.92634930","80.57187720"
"Galkulama","50064","8.30612950","80.45037230"
"Galnewa","50170","8.03692110","80.47253460"
"Gambirigaswewa","50057","8.48075710","80.39369940"
"Ganewalpola","50142","8.08761040","80.62791750"
"Gemunupura","50224","8.19657290","80.16797580"
"Getalawa","50392","8.31826200","80.77406080"
"Gnanikulama","50036","8.29901660","80.43682450"
"Gonahaddenawa","50554","8.31135180","80.40365080"
"Habarana","50150","8.03221470","80.75192720"
"Halmillawa Dambulla","50124","8.17185550","80.75342070"
"Halmillawetiya","50552","8.73197780","80.66598420"
"Hidogama","50044","8.26194340","80.41317800"
"Horawpatana","50350","8.55697630","80.83129110"
"Horiwila","50222","7.86666700","81.08333300"
"Hurigaswewa","50176","8.09486350","80.37004070"
"Hurulunikawewa","50394","8.27086140","80.75918140"
"Ihala Puliyankulama","61316","8.15202380","80.56328840"
"Kagama","50282","8.04226330","80.50723210"
"Kahatagasdigiliya","50320","8.42598100","80.68725300"
"Kahatagollewa","50562","8.73523570","80.79901850"
"Kalakarambewa","50288","8.31135180","80.40365080"
"Kalaoya","50226","8.21001910","80.10754390"
"Kalawedi Ulpotha","50556","7.90669100","80.37530500"
"Kallanchiya","50454","8.46341190","80.57161990"
"Kalpitiya","61360","8.32274050","80.40861190"
"Kalukele Badanagala","51037","7.78305910","81.05890600"
"Kapugallawa","50370","8.31135180","80.40365080"
"Karagahawewa","50232","8.33692640","80.41545860"
"Kashyapapura","51032","8.31135180","80.40365080"
"Kebithigollewa","50500","8.64112290","80.66969990"
"Kekirawa","50100","8.04210300","80.59383300"
"Kendewa","50452","8.49101270","80.60420240"
"Kiralogama","50259","8.19062870","80.36864880"
"Kirigalwewa","50511","8.53632700","80.55773360"
"Kirimundalama","61362","8.31135180","80.40365080"
"Kitulhitiyawa","50132","8.31135180","80.40365080"
"Kurundankulama","50062","8.35485670","80.45212160"
"Labunoruwa","50088","8.16498510","80.59799730"
"Ihalagama","50304","8.33183050","80.40290170"
"Ipologama","50280","8.06502700","80.53551070"
"Madatugama","50130","7.94585760","80.62714150"
"Maha Elagamuwa","50126","7.99146130","80.61881560"
"Mahabulankulama","50196","8.34481060","80.39723910"
"Mahailluppallama","50270","8.10373640","80.46046430"
"Mahakanadarawa","50306","8.35002930","80.39636870"
"Mahapothana","50327","8.38787430","80.76120640"
"Mahasenpura","50574","8.86182610","80.84884980"
"Mahawilachchiya","50022","8.47075510","80.20982190"
"Mailagaswewa","50384","8.28185290","80.68262540"
"Malwanagama","50236","8.31135180","80.40365080"
"Maneruwa","50182","7.90214030","80.47992730"
"Maradankadawala","50080","8.11686520","80.56051110"
"Maradankalla","50308","8.11686520","80.56051110"
"Medawachchiya","50500","8.53748130","80.49098060"
"Megodawewa","50334","8.21570610","80.70237990"
"Mihintale","50300","8.35342320","80.50494450"
"Morakewa","50349","8.50922770","80.78517100"
"Mulkiriyawa","50324","8.31135180","80.40365080"
"Muriyakadawala","50344","8.14464530","80.58841560"
"Colombo 15","01500","6.96547650","79.87083950"
"Nachchaduwa","50046","8.25549640","80.48270740"
"Namalpura","50339","8.14396200","80.74731900"
"Negampaha","50180","7.95785590","80.51122380"
"Nochchiyagama","50200","8.29255010","80.22655450"
"Nuwaragala","51039","7.79264660","81.00368210"
"Padavi Maithripura","50572","8.34481060","80.39723910"
"Padavi Parakramapura","50582","8.90344220","80.77579840"
"Padavi Sripura","50587","8.91950600","80.80871030"
"Padavi Sritissapura","50588","8.31135180","80.40365080"
"Padaviya","50570","8.83409980","80.76073890"
"Padikaramaduwa","50338","8.23585720","80.74734750"
"Pahala Halmillewa","50206","8.30461820","80.61799520"
"Pahala Maragahawe","50220","8.24286010","80.15319510"
"Pahalagama","50244","8.18585380","80.28230630"
"Palugaswewa","50144","8.06044070","80.68817180"
"Pandukabayapura","50448","8.31135180","80.40365080"
"Pandulagama","50029","8.32751600","80.36110910"
"Parakumpura","50326","8.31135180","80.40365080"
"Parangiyawadiya","50354","8.48798500","80.92077370"
"Parasangahawewa","50055","8.35534470","80.39647510"
"Pelatiyawa","51033","7.81604000","81.09202180"
"Pemaduwa","50020","8.49536680","80.19151100"
"Perimiyankulama","50004","8.35534470","80.39647510"
"Pihimbiyagolewa","50512","8.31135180","80.40365080"
"Pubbogama","50122","7.92807970","80.59681890"
"Punewa","50506","8.61016710","80.46880610"
"Rajanganaya","50246","8.16572070","80.19644430"
"Rambewa","50450","8.44010740","80.50494450"
"Rampathwila","50386","8.40259460","80.63546650"
"Rathmalgahawewa","50514","8.52339920","80.69649050"
"Saliyapura","50008","8.40542620","80.41596030"
"Seeppukulama","50380","8.38161270","80.58905790"
"Senapura","50284","8.00068170","81.15821120"
"Sivalakulama","50068","8.25643610","80.63604780"
"Siyambalewa","50184","8.01668610","80.42708850"
"Sravasthipura","50042","8.29881970","80.37702160"
"Talawa","50230","8.23651890","80.35077300"
"Tambuttegama","50240","8.15400150","80.30459670"
"Tammennawa","50104","8.35002930","80.39636870"
"Tantirimale","50016","8.57228020","80.25722250"
"Telhiriyawa","50242","8.14312930","80.31413490"
"Tirappane","50072","8.21330460","80.52717560"
"Tittagonewa","50558","8.69645040","80.77132100"
"Udunuwara Colony","50207","7.23197260","80.56606570"
"Upuldeniya","50382","8.31380840","80.66043640"
"Uttimaduwa","50067","8.42457530","80.25833250"
"Vellamanal","31053","8.31135180","80.40365080"
"Viharapalugama","50012","8.36304860","80.40542270"
"Wahalkada","50564","8.72249360","80.83501090"
"Wahamalgollewa","50492","8.48070790","80.50216520"
"Walagambahuwa","50086","8.15586220","80.49660620"
"Walahaviddawewa","50516","8.45887190","80.86599690"
"Welimuwapotana","50358","8.55929760","80.83501090"
"Welioya Project","50586","8.96404140","80.78794070"
"Akkarasiyaya","90166","6.99340090","81.05498150"
"Aluketiyawa","90736","7.30000000","81.11666700"
"Aluttaramma","90722","6.99340090","81.05498150"
"Ambadandegama","90108","6.81900520","81.05614580"
"Ambagasdowa","90300","6.92807100","80.89657580"
"Arawa","90017","7.16666700","81.08333300"
"Arawakumbura","90532","7.08738620","81.19955110"
"Arawatta","90712","7.34330130","81.03716620"
"Atakiriya","90542","6.98189520","81.07628300"
"Badulla","90000","6.99340090","81.05498150"
"Baduluoya","90019","7.12482550","81.03026390"
"Ballaketuwa","90092","6.86225690","81.10029850"
"Bambarapana","90322","6.98156960","80.95118350"
"Bandarawela","90100","6.82587800","80.99815760"
"Beramada","90066","6.92125060","79.84778520"
"Bibilegama","90502","6.89617300","81.14029050"
"Boragas","90362","6.89990100","80.84608220"
"Boralanda","90170","6.82790440","80.89450140"
"Bowela","90302","6.98189520","81.07628300"
"Central Camp","32050","6.99340090","81.05498150"
"Damanewela","32126","6.99340090","81.05498150"
"Dambana","90714","7.41362290","81.10834830"
"Dehiattakandiya","32150","7.67127960","81.04648400"
"Demodara","90080","6.89928290","81.05817760"
"Diganatenna","90132","6.85588490","80.96526170"
"Dikkapitiya","90214","6.89368620","80.93736230"
"Dimbulana","90324","7.01527780","80.94000000"
"Divulapelessa","90726","7.57782550","81.00368210"
"Diyatalawa","90150","6.80695100","80.95720210"
"Dulgolla","90104","6.85685410","80.88343670"
"Ekiriyankumbura","91502","7.29888840","81.24086890"
"Ella","90090","6.86669880","81.04655300"
"Ettampitiya","90140","6.93645060","80.98779800"
"Galauda","90065","6.99340090","81.05498150"
"Galporuyaya","90752","7.42852030","81.03682110"
"Gawarawela","90082","6.90284970","81.07132610"
"Girandurukotte","90750","7.46291690","81.01749170"
"Godunna","90067","7.06682380","80.97488400"
"Gurutalawa","90208","6.84350900","80.90002230"
"Haldummulla","90180","6.76892280","80.89266810"
"Hali Ela","90060","6.95552540","81.03143840"
"Hangunnawa","90224","6.94950730","80.87237050"
"Haputale","90160","6.76541360","80.95256550"
"Hebarawa","90724","7.53197770","80.98987010"
"Heeloya","90112","6.86669880","81.04655300"
"Helahalpe","90122","6.88928830","81.03450680"
"Helapupula","90094","6.98189520","81.07628300"
"Hopton","90524","6.98823220","81.19748460"
"Idalgashinna","96167","6.78296900","80.90003310"
"Kahataruppa","90052","6.98189520","81.07628300"
"Kalugahakandura","90546","7.12266830","81.09478080"
"Kalupahana","90186","6.79100550","80.84537710"
"Kebillawela","90102","6.83496050","80.99328360"
"Kendagolla","90048","6.99275530","81.10846340"
"Keselpotha","90738","7.32834070","81.09421320"
"Ketawatta","90016","6.98189520","81.07628300"
"Kiriwanagama","90184","6.77335170","80.83121380"
"Koslanda","90190","6.74312340","81.01783690"
"Kuruwitenna","90728","6.98189520","81.07628300"
"Kuttiyagolla","90046","7.02684860","81.09478080"
"Landewela","90068","7.00514020","81.00230100"
"Liyangahawela","90106","6.81189130","81.02991830"
"Lunugala","90530","7.04036760","81.20167370"
"Lunuwatta","90310","6.95572350","80.91939120"
"Madulsima","90535","7.04667480","81.15821120"
"Mahiyanganaya","90700","7.33161020","81.00368210"
"Makulella","90114","6.82919910","81.03406010"
"Malgoda","90754","6.98189520","81.07628300"
"Mapakadawewa","90730","7.28932120","81.02577630"
"Maspanna","90328","7.02794930","80.94427320"
"Maussagolla","90582","6.91240280","81.13856710"
"Mawanagama","32158","7.59697890","81.15269760"
"Medawela Udukinda","90218","6.86256990","80.85776300"
"Meegahakiula","90015","7.01864620","81.05639800"
"Metigahatenna","90540","7.07720390","81.15407600"
"Mirahawatta","90134","6.87515400","80.93397920"
"Miriyabedda","90504","6.99340090","81.05498150"
"Nawamedagama","32120","7.52535610","81.05890600"
"Nelumgama","90042","6.99417300","81.07000500"
"Nikapotha","90165","6.74527170","80.97298900"
"Nugatalawa","90216","6.90191460","80.90770790"
"Ohiya","90168","6.81901030","80.84469840"
"Pahalarathkinda","90756","6.99340090","81.05498150"
"Pallekiruwa","90534","7.01599390","81.22434440"
"Passara","90500","6.93490880","81.15269760"
"Pattiyagedara","90138","6.90433540","80.97438700"
"Pelagahatenna","90522","6.96096040","81.12512350"
"Perawella","90222","6.94737520","80.83078860"
"Pitamaruwa","90544","7.11015220","81.15916800"
"Pitapola","90171","6.80930280","80.89173530"
"Puhulpola","90212","6.98189520","81.07628300"
"Rajagalatenna","32068","6.98189520","81.07628300"
"Rathkarawwa","90164","6.80691400","80.90556450"
"Ridimaliyadda","90704","7.21816000","81.12050680"
"Silmiyapura","90364","6.91441390","80.84193070"
"Sirimalgoda","90044","6.98189520","81.07628300"
"Siripura","32155","6.96852990","80.91082680"
"Sorabora Colony","90718","7.36061250","80.98434460"
"Soragune","90183","6.74491800","80.89279720"
"Soranathota","90008","7.02284960","81.04495180"
"Taldena","90014","7.09199130","81.04835830"
"Timbirigaspitiya","90012","6.99340090","81.05498150"
"Uduhawara","90226","6.94799280","80.86268640"
"Uraniya","90702","7.26054430","81.08523180"
"Uva Karandagolla","90091","6.98189520","81.07628300"
"Uva Mawelagama","90192","6.98189520","81.07628300"
"Uva Tenna","90188","6.98189520","81.07628300"
"Uva Tissapura","90734","6.98189520","81.07628300"
"Welimada","90200","6.90190720","80.90792450"
"Weranketagoda","32062","6.98189520","81.07628300"
"Wewatta","90716","7.38626820","81.16441360"
"Wineethagama","90034","6.98088050","81.07696420"
"Yalagamuwa","90329","6.98189520","81.07628300"
"Yalwela","90706","7.26420680","81.15676260"
"Addalaichenai","32350","7.24425790","81.85480710"
"Ampilanthurai","30162","7.71655610","81.69881720"
"Araipattai","30150","7.73099710","81.67472950"
"Ayithiyamalai","30362","7.67361980","81.57030650"
"Bakiella","30206","7.73099710","81.67472950"
"Batticaloa","30000","7.73099710","81.67472950"
"Cheddipalayam","30194","7.57957080","81.78493010"
"Chenkaladi","30350","7.78585710","81.58980160"
"Eravur","30300","7.77689720","81.60420280"
"Kaluwanchikudi","30200","7.52937250","81.79460920"
"Kaluwankemy","30372","7.52937250","81.79460920"
"Kannankudah","30016","7.67886980","81.67250220"
"Karadiyanaru","30354","7.70074660","81.53838700"
"Kathiraveli","30456","8.22288100","81.40385770"
"Kattankudi","30100","7.68536950","81.72601230"
"Kiran","30394","7.86777970","81.51026550"
"Kirankulam","30159","7.60532060","81.76838280"
"Koddaikallar","30249","7.48387900","81.80798530"
"Kokkaddicholai","30160","7.61605700","81.71031550"
"Kurukkalmadam","30192","7.58799500","81.78041500"
"Mandur","30220","7.48266490","81.75409020"
"Miravodai","30426","7.88934640","81.51026550"
"Murakottanchanai","30392","7.73099710","81.67472950"
"Navagirinagar","30238","7.73099710","81.67472950"
"Navatkadu","30018","7.20452670","81.84019570"
"Oddamavadi","30420","7.90310760","81.52398460"
"Palamunai","32354","7.66111430","81.74725220"
"Pankudavely","30352","7.73099710","81.67472950"
"Periyaporativu","30230","7.51916300","81.76913180"
"Periyapullumalai","30358","7.58167990","81.46085600"
"Pillaiyaradi","30022","7.73099710","81.67472950"
"Punanai","30428","7.96500740","81.38897480"
"Thannamunai","30024","7.75310300","81.63780190"
"Thettativu","30196","7.55581030","81.79670110"
"Thikkodai","30236","7.52434860","81.68841840"
"Thirupalugamam","30234","7.73099710","81.67472950"
"Unnichchai","30364","7.61828800","81.54882070"
"Vakaneri","30424","7.92654340","81.48281980"
"Vakarai","30450","8.13690990","81.43407900"
"Valaichenai","30400","7.92132760","81.52467050"
"Vantharumoolai","30376","7.79058820","81.55690030"
"Vellavely","30204","7.49561360","81.72947020"
"Akarawita","10732","6.84221160","80.00302570"
"Ambalangoda","80300","6.77508470","79.96543240"
"Athurugiriya","10150","6.87231850","80.00038750"
"Avissawella","10700","6.95432890","80.20457680"
"Batawala","10513","6.87742700","80.05488940"
"Battaramulla","10120","6.89838190","79.91784130"
"Biyagama","11650","6.94621530","79.98920340"
"Bope","10522","6.82488950","80.13727570"
"Boralesgamuwa","10290","6.82335500","79.90902460"
"Colombo 8","00800","6.91217960","79.88288280"
"Dedigamuwa","10656","6.89801900","80.02694400"
"Dehiwala","10350","6.83011850","79.88008320"
"Deltara","10302","6.78513280","79.91371250"
"Habarakada","10204","6.86596670","80.01296790"
"Hanwella","10650","6.89783440","80.08142920"
"Hiripitya","10232","6.83346570","79.97661950"
"Hokandara","10118","6.87431920","79.96962770"
"Homagama","10200","6.84327620","80.00318330"
"Horagala","10502","6.81482950","80.07236730"
"Kaduwela","10640","6.94058620","79.95226860"
"Kaluaggala","11224","6.93278990","80.10656460"
"Kapugoda","10662","6.94498250","80.07466280"
"Kehelwatta","12550","6.93352580","79.85978310"
"Kiriwattuduwa","10208","6.80237970","80.00737680"
"Kolonnawa","10600","6.92801560","79.89083080"
"Kosgama","10730","6.93971650","80.13692680"
"Madapatha","10306","6.76904650","79.92906420"
"Maharagama","10280","6.84780040","79.92176150"
"Malabe","10115","6.90784830","79.94740870"
"Moratuwa","10400","6.78807060","79.89128130"
"Mount Lavinia","10370","6.82215880","79.87317740"
"Mullegama","10202","6.88452810","80.01285620"
"Napawela","10704","6.89641910","79.88848190"
"Nugegoda","10250","6.86490810","79.89967890"
"Padukka","10500","6.84536340","80.10377210"
"Pannipitiya","10230","6.84639930","79.94843460"
"Piliyandala","10300","6.80175750","79.92273130"
"Pitipana Homagama","10206","6.84444250","80.02062030"
"Polgasowita","10320","6.78993580","79.98081430"
"Pugoda","10660","6.95903420","80.13172030"
"Ranala","10654","6.91537590","80.03393120"
"Siddamulla","10304","6.81725160","79.95983830"
"Siyambalagoda","81462","6.79228810","79.96683080"
"Sri Jayawardenepura","10100","6.87927560","79.90080740"
"Talawatugoda","10116","6.87586480","79.93919360"
"Tummodara","10682","6.86589500","80.16906420"
"Waga","10680","6.88051870","80.14006710"
"Colombo 6","00600","6.87465790","79.86048310"
"Agaliya","80212","6.00854630","80.24223830"
"Ahangama","80650","5.97397470","80.36215950"
"Ahungalla","80562","6.31327760","80.04091780"
"Akmeemana","80090","6.08363060","80.29623850"
"Alawatugoda","20140","7.40899340","80.61879420"
"Aluthwala","80332","6.18019580","80.14006710"
"Ampegama","80204","6.19467440","80.14425400"
"Amugoda","80422","6.32125570","80.21888580"
"Anangoda","80044","6.04756420","80.25304120"
"Angulugaha","80122","6.03185250","80.32409600"
"Ankokkawala","80048","6.05329180","80.28091290"
"Aselapura","51072","6.05351850","80.22097730"
"Baddegama","80200","6.16882920","80.17939760"
"Balapitiya","80550","6.27835460","80.04030470"
"Banagala","80143","6.28153610","80.42590530"
"Batapola","80320","6.22418210","80.11383690"
"Bentota","80500","6.41891750","80.00597900"
"Boossa","80270","6.08894940","80.15606480"
"Dellawa","81477","6.32489590","80.44934050"
"Dikkumbura","80654","6.01834760","80.37282450"
"Dodanduwa","80250","6.10283470","80.13029690"
"Ella Tanabaddegama","80402","6.05774900","80.21755720"
"Elpitiya","80400","6.28799690","80.15960410"
"Galle","80000","6.04819180","80.21539980"
"Ginimellagaha","80220","6.12970640","80.16937100"
"Gintota","80280","6.06001210","80.18002210"
"Godahena","80302","6.23458620","80.07456270"
"Gonamulla Junction","80054","6.08208300","80.29091100"
"Gonapinuwala","80230","6.14345180","80.13448420"
"Habaraduwa","80630","5.99835900","80.30782020"
"Haburugala","80506","6.40370130","80.03393120"
"Hikkaduwa","80240","6.13946760","80.10628610"
"Hiniduma","80080","6.30944820","80.32409600"
"Hiyare","80056","6.07201140","80.34258010"
"Kahaduwa","80460","6.22345150","80.21261090"
"Kahawa","80312","6.18818520","80.07723920"
"Karagoda","80151","6.03524350","80.21049500"
"Karandeniya","80360","6.26832170","80.08980850"
"Kosgoda","80570","6.33544240","80.03393120"
"Kottawagama","80062","6.10781390","80.30358840"
"Kottegoda","81180","6.96152440","80.93610230"
"Kuleegoda","80328","6.21382060","80.07033080"
"Magedara","80152","6.09993990","80.40343930"
"Mahawela Sinhapura","51076","6.68192410","80.40587410"
"Mapalagama","80112","6.22356070","80.28927270"
"Mapalagama Central","80116","6.22356070","80.28927270"
"Mattaka","80424","6.30295010","80.25722250"
"Meda-Keembiya","80092","6.11400500","80.24049590"
"Meetiyagoda","80330","6.18983430","80.09539420"
"Nagoda","80110","6.19797800","80.27465470"
"Nakiyadeniya","80064","6.14332850","80.34219840"
"Nawandagala","80416","6.31123550","80.14006710"
"Neluwa","80082","6.37310280","80.35751280"
"Nindana","80318","6.20709000","80.10796080"
"Pahala Millawa","81472","6.29379580","80.47158660"
"Panangala","80075","6.26290960","80.32370430"
"Pannimulla Panagoda","80086","6.35379140","80.40869950"
"Parana Thanayamgoda","80114","6.23054990","80.31295410"
"Patana","22012","6.05351850","80.22097730"
"Pitigala","80420","6.34195530","80.23770780"
"Poddala","80170","6.10846880","80.22376600"
"Polgampola","12136","6.46518930","80.19612050"
"Porawagama","80408","6.28720780","80.22494260"
"Rantotuwila","80354","6.05351850","80.22097730"
"Talagampola","80058","6.08706280","80.30354180"
"Talgaspe","80406","6.05423480","80.22446310"
"Talpe","80615","6.00099540","80.27812620"
"Tawalama","80148","6.33472690","80.34219840"
"Tiranagama","80244","6.12857980","80.11121550"
"Udalamatta","80108","6.18359350","80.29825070"
"Udugama","80070","6.21790470","80.33802130"
"Uluvitike","80168","6.08339890","80.21121640"
"Unawatuna","80600","6.01744690","80.24885960"
"Unawitiya","80214","6.05351850","80.22097730"
"Uragaha","80352","6.34904400","80.09786370"
"Uragasmanhandiya","80350","6.34904400","80.09786370"
"Wakwella","80042","6.09216840","80.19029630"
"Walahanduwa","80046","6.05155910","80.25722250"
"Wanchawela","80120","6.03571080","80.26859670"
"Wanduramba","80100","6.13247130","80.24885960"
"Warukandeniya","80084","6.36610380","80.40483060"
"Watugedara","80340","6.26121210","80.06047740"
"Weihena","80216","6.30777980","80.23491960"
"Welikanda","51070","7.94596540","81.24912980"
"Wilanagama","20142","6.00417960","80.41381130"
"Yakkalamulla","80150","6.10134950","80.35910020"
"Yatalamatta","80107","6.17373330","80.28648620"
"Akaragama","11536","7.27348030","79.95704110"
"Ambagaspitiya","11052","7.08445090","80.06533660"
"Ambepussa","11212","7.25610360","80.16932850"
"Andiambalama","11558","7.17881270","79.90685340"
"Attanagalla","11120","7.11374270","80.13550050"
"Badalgama","11538","7.28865230","79.98081430"
"Banduragoda","11244","7.22779350","80.05768340"
"Batuwatta","11011","7.06225400","79.94123680"
"Bemmulla","11040","7.11313180","80.02718930"
"Biyagama IPZ","11672","6.96228400","80.00903670"
"Bokalagama","11216","7.21532070","80.10292600"
"Bollete (WP)","11024","7.08404840","80.00983140"
"Bopagama","11134","7.07130690","80.16369600"
"Buthpitiya","11720","7.05470030","80.05322640"
"Dagonna","11524","7.21005490","79.91647170"
"Danowita","11896","7.22087770","80.16797580"
"Debahera","11889","7.15797470","80.14983620"
"Dekatana","11690","6.97023240","80.04241920"
"Delgoda","11700","6.98928850","80.01437660"
"Delwagura","11228","7.26524820","80.00597900"
"Demalagama","11692","6.99127630","80.05209520"
"Demanhandiya","11270","7.22438790","79.88451350"
"Dewalapola","11102","7.16120370","79.99199950"
"Divulapitiya","11250","7.23031430","80.01647400"
"Divuldeniya","11208","7.28072540","80.04371230"
"Dompe","11680","6.94039470","80.07719620"
"Dunagaha","11264","7.22205330","79.97801780"
"Ekala","11380","7.10229130","79.90947510"
"Ellakkala","11116","7.14166500","80.13308850"
"Essella","11108","7.17651350","80.02546960"
"Galedanda","90206","6.96486420","79.93186230"
"Gampaha","11000","7.08404840","80.00983140"
"Ganemulla","11020","7.08271900","79.94825480"
"Giriulla","60140","7.34867490","80.13801950"
"Gonawala","11630","6.95417030","79.93661870"
"Halpe","70145","7.26221070","79.92906420"
"Hapugastenna","70164","6.74054400","80.18881730"
"Heiyanthuduwa","11618","6.97187680","79.97376420"
"Hinatiyana Madawala","11568","7.15015720","79.91227380"
"Hiswella","11734","7.02015740","80.16379010"
"Horampella","11564","7.17023150","79.97941610"
"Hunumulla","11262","7.23365100","79.98930900"
"Hunupola","60582","7.61421880","80.38952480"
"Ihala Madampella","11265","7.24895350","79.95371930"
"Imbulgoda","11856","7.08704600","80.01751040"
"Ja-Ela","11350","7.08575960","79.92544450"
"Kadawatha","11850","7.00467190","79.95420020"
"Kahatowita","11144","7.09745510","80.11223900"
"Kalagedihena","11875","7.12014350","80.05908040"
"Kaleliya","11160","7.19702310","80.11075310"
"Kandana","11320","7.04778970","79.89703480"
"Katana","11534","7.24802840","79.89936650"
"Katudeniya","21016","7.43831900","80.64154520"
"Katunayake","11450","7.17248490","79.88534840"
"Katunayake Air Force Camp","11440","7.18282930","79.86773900"
"Katunayake(FTZ)","11420","7.17366030","79.88688610"
"Katuwellegama","11526","7.19971330","79.94976680"
"Kelaniya","11600","6.97821370","79.91155220"
"Kimbulapitiya","11522","7.20424070","79.89408060"
"Kirindiwela","11730","7.04118250","80.12893240"
"Kitalawalana","11206","7.29093330","80.11424340"
"Kochchikade","11540","7.26570630","79.85912350"
"Kotadeniyawa","11232","7.28388130","80.06606500"
"Kotugoda","11390","7.12319100","79.92416730"
"Kumbaloluwa","11105","7.17710570","80.11214930"
"Loluwagoda","11204","7.29210060","80.13503500"
"Mabodale","11114","7.20243690","80.01872130"
"Madelgamuwa","11033","7.10846130","79.95986960"
"Makewita","11358","7.10095000","79.96332620"
"Makola","11640","6.97189890","79.94663980"
"Malwana","11670","6.95078440","80.01574490"
"Mandawala","11061","7.00011780","80.09399780"
"Marandagahamula","11260","7.22898140","79.99060150"
"Mellawagedara","11234","7.28568090","80.02694400"
"Minuwangoda","11550","7.18420760","79.95004770"
"Mirigama","11200","7.22711090","80.15676640"
"Miriswatta","80508","7.07273940","80.01576330"
"Mithirigala","11742","6.99622360","80.16099950"
"Muddaragama","11112","7.20859950","80.05500330"
"Mudungoda","11056","7.06669220","80.01226900"
"Mulleriyawa New Town","10620","7.08404840","80.00983140"
"Naranwala","11063","7.01189570","80.02414890"
"Nawana","11222","7.08404840","80.00983140"
"Nedungamuwa","11066","7.04897410","80.02135380"
"Negombo","11500","7.19554740","79.85733840"
"Nikadalupotha","60580","7.65409650","80.37560810"
"Nikahetikanda","11128","7.09880240","80.17913680"
"Nittambuwa","11880","7.14236390","80.10377210"
"Niwandama","11354","7.07345330","79.92777630"
"Opatha","80142","7.13205760","79.92634270"
"Pamunugama","11370","7.08649860","79.85488230"
"Pamunuwatta","11214","7.21631230","80.14146270"
"Panawala","70612","7.16740680","80.09399780"
"Pasyala","11890","7.16671030","80.12331750"
"Peliyagoda","11830","6.95849150","79.90558190"
"Pepiliyawala","11741","7.00218000","80.12890100"
"Pethiyagoda","11043","7.13806170","79.99510440"
"Polpithimukulana","11324","7.08404840","80.00983140"
"Puwakpitiya","10712","7.03801870","80.06746190"
"Radawadunna","11892","7.18438730","80.14146270"
"Radawana","11725","7.03194950","80.09399780"
"Raddolugama","11400","7.14063340","79.90136030"
"Ragama","11010","7.02317680","79.90777230"
"Ruggahawila","11142","7.11003790","80.11424340"
"Seeduwa","11410","7.14067840","79.88697320"
"Siyambalape","11607","6.96741120","79.98920340"
"Talahena","11504","7.08404840","80.00983140"
"Thambagalla","60584","7.08404840","80.00983140"
"Thimbirigaskatuwa","11532","7.13542420","79.88851020"
"Tittapattara","10664","6.91356150","80.05972130"
"Udathuthiripitiya","11054","7.08404840","80.00983140"
"Udugampola","11030","7.12635740","79.97801780"
"Uggalboda","11034","7.13248020","79.95424380"
"Urapola","11126","7.09804240","80.14499060"
"Uswetakeiyawa","11328","7.03899110","79.86608360"
"Veyangoda","11100","7.16621390","80.05586950"
"Walgammulla","11146","7.07093920","80.11773350"
"Walpita","11226","7.26126670","80.04591300"
"Walpola (WP)","11012","7.19434870","79.92766510"
"Wathurugama","11724","7.05465480","80.10097960"
"Watinapaha","11104","7.18531180","80.00038750"
"Wattala","11104","6.99066770","79.89317090"
"Weboda","11858","7.02511750","79.99130050"
"Wegowwa","11562","7.17160320","79.97462990"
"Weweldeniya","11894","7.19792850","80.15262710"
"Yakkala","11870","7.08641530","80.03351070"
"Yatiyana","11566","7.18677080","79.92605480"
"Ambalantota","82100","6.12259990","81.02375940"
"Angunakolapelessa","82220","6.16556890","80.90311720"
"Angunakolawewa","91302","6.41154880","81.08592350"
"Bandagiriya Colony","82005","6.24086040","81.14484790"
"Barawakumbuka","82110","6.22578540","80.92906850"
"Beliatta","82400","6.04815730","80.73391440"
"Beragama","82102","6.14212550","81.03181690"
"Beralihela","82618","6.32158700","81.29816730"
"Bundala","82002","6.19424870","81.18731410"
"Ellagala","82619","6.33333300","81.25000000"
"Gangulandeniya","82586","6.29562990","80.71866970"
"Getamanna","82420","6.03954990","80.68955830"
"Goda Koggalla","82401","6.18333300","81.01666700"
"Gonagamuwa Uduwila","82602","6.24723940","81.26564900"
"Gonnoruwa","82006","6.23333300","81.10000000"
"Hakuruwela","82248","6.14933330","80.83085870"
"Hambantota","82000","6.14288290","81.12123080"
"Handugala","81326","6.19032110","80.62575390"
"Hungama","82120","6.11562600","80.92906850"
"Ihala Beligalla","82412","6.15358160","81.12714900"
"Iththa Demaliya","82462","6.16784630","80.74593370"
"Julampitiya","82252","6.23552320","80.73543110"
"Kahandamodara","82126","6.06988240","80.89151100"
"Kariyamaditta","82274","6.25527330","80.81286360"
"Katuwana","82500","6.26362380","80.69094480"
"Kawantissapura","82622","6.35187120","81.31297950"
"Kirama","82550","6.20669210","80.66182340"
"Kirinda","82614","6.23523600","81.33444080"
"Lunama","82108","6.09531670","80.96776580"
"Lunugamwehera","82634","6.33835150","81.14420930"
"Magama","82608","6.20583660","81.30418000"
"Mahagalwewa","82016","6.38543820","81.03958210"
"Mamadala","82109","6.15965390","80.97467400"
"Medamulana","82254","6.18102790","80.76855080"
"Middeniya","82270","6.25135790","80.76416530"
"Meegahajandura","82014","6.15928530","81.12730130"
"Modarawana","82416","6.11736090","80.72421360"
"Mulkirigala","82242","6.10879180","80.75885410"
"Nakulugamuwa","82300","5.99543090","80.70896710"
"Netolpitiya","82135","6.06565060","80.83916280"
"Nihiluwa","82414","6.07135770","80.70629330"
"Padawkema","82636","6.14288290","81.12123080"
"Pahala Andarawewa","82008","6.29958800","81.08563270"
"Rammalawarapitiya","82554","6.22198710","80.63685390"
"Ranakeliya","82612","6.14288290","81.12123080"
"Ranmuduwewa","82018","6.34629420","81.05890600"
"Ranna","82125","6.09354290","80.86268640"
"Ratmalwala","82276","6.14288290","81.12123080"
"Ruhunu Ridiyagama","82106","6.24684360","80.98246490"
"Sooriyawewa Town","82010","6.31100250","80.99539520"
"Tangalla","82200","6.02433830","80.79407260"
"Tissamaharama","82600","6.27915380","81.28766910"
"Uda Gomadiya","82504","6.29561590","80.66933750"
"Udamattala","82638","6.29139060","81.12135710"
"Uswewa","82278","6.24206220","80.88343670"
"Vitharandeniya","82232","6.02433830","80.79407260"
"Walasmulla","82450","6.15088880","80.69371770"
"Weeraketiya","82240","6.14760810","80.76337430"
"Weerawila","82632","6.24214940","81.22920900"
"Weerawila NewTown","82615","6.24214940","81.22920900"
"Wekandawela","82246","6.14288290","81.12123080"
"Weligatta","82004","6.23857610","81.21883550"
"Yatigala","82418","6.11341960","80.69473650"
"Jaffna","40000","9.66901300","80.02695280"
"Agalawatta","12200","6.54227940","80.15750400"
"Alubomulla","12524","6.71130910","79.94585140"
"Anguruwatota","12320","6.64469710","80.07459540"
"Atale","71363","6.45000000","80.26666700"
"Baduraliya","12230","6.51712210","80.23118010"
"Bandaragama","12530","6.71440730","79.98906040"
"Batugampola","10526","6.77398170","80.13967210"
"Bellana","12224","6.52213600","80.17355650"
"Beruwala","12070","6.46320380","79.97471240"
"Bolossagama","12008","6.62305890","80.01576330"
"Bombuwala","12024","6.57540720","80.01428050"
"Boralugoda","12142","6.43471850","80.27951950"
"Bulathsinhala","12300","6.64874710","80.17913680"
"Danawala Thiniyawala","12148","6.41510400","80.32862730"
"Delmella","12304","6.67962190","80.20563820"
"Dharga Town","12090","6.44474520","80.01686020"
"Diwalakada","12308","6.57111530","80.06087530"
"Dodangoda","12020","6.55286750","80.02329230"
"Dombagoda","12416","6.64617370","80.05069810"
"Ethkandura","80458","6.23289180","80.15681340"
"Galpatha","12005","6.62914500","80.02345020"
"Gamagoda","12016","6.58394120","79.99535970"
"Gonagalpura","80502","6.58539480","79.96074000"
"Gonapola Junction","12410","6.75634030","80.01716090"
"Govinna","12310","6.67523890","80.11834880"
"Gurulubadda","12236","6.04826920","80.19603960"
"Halkandawila","12055","6.50000000","80.01666670"
"Haltota","12538","6.69425550","80.03086100"
"Halvitigala Colony","80146","6.31172200","80.36510350"
"Halwala","12118","6.42087690","80.10656460"
"Halwatura","12306","6.71759930","80.19029630"
"Handapangoda","10524","6.79056920","80.14006710"
"Hedigalla Colony","12234","6.46639100","80.28509290"
"Henegama","11715","6.48387220","80.10097960"
"Hettimulla","71210","6.45807660","79.99080060"
"Horana","12400","6.72465340","80.03994640"
"Ittapana","12116","6.43664840","80.09552300"
"Kahawala","10508","6.77942550","80.11214930"
"Kalawila Kiranthidiya","12078","6.45456930","80.01038610"
"Kalutara","12000","6.58539480","79.96074000"
"Kananwila","12418","6.75423780","80.06228150"
"Kandanagama","12428","6.71440730","79.98906040"
"Kelinkanda","12218","6.57452540","80.29345220"
"Kitulgoda","12222","6.50645020","80.17913680"
"Koholana","12007","6.61727960","79.99060150"
"Kuda Uduwa","12426","6.76620850","80.07789310"
"Labbala","60162","7.33960770","80.07846130"
"Ihalahewessa","80432","6.58539480","79.96074000"
"Induruwa","80510","6.37585110","80.00931050"
"Ingiriya","12440","6.74037690","80.16245430"
"Maggona","12060","6.50957990","79.99571700"
"Mahagama","12210","6.60352860","80.15960410"
"Mahakalupahana","12126","6.58539480","79.96074000"
"Maharangalla","71211","6.60155280","79.97532410"
"Malgalla Talangalla","80144","6.30741480","80.36607150"
"Matugama","12100","6.52194320","80.11368520"
"Meegahatenna","12130","6.43311600","80.19587550"
"Meegama","12094","6.42134980","80.06327130"
"Meegoda","10504","6.58936130","79.96366730"
"Millaniya","12412","6.68051510","80.02065500"
"Millewa","12422","6.78121050","80.07025550"
"Miwanapalana","12424","6.74338480","80.09399780"
"Molkawa","12216","6.60507010","80.23770780"
"Morapitiya","12232","6.53052660","80.27365140"
"Morontuduwa","12564","6.66234510","79.97032690"
"Nawattuduwa","12106","6.48495100","80.06382200"
"Neboda","12030","6.59165510","80.09260140"
"Padagoda","12074","6.56576860","79.98361080"
"Pahalahewessa","12144","6.58539480","79.96074000"
"Paiyagala","12050","6.51861030","79.99479560"
"Panadura","12500","6.75279940","79.89493090"
"Pannala","60160","6.56600740","79.96254190"
"Paragastota","12414","6.67287650","80.00178540"
"Paragoda","12302","6.61220740","80.22668470"
"Paraigama","12122","6.58539480","79.96074000"
"Pelanda","12214","6.58539480","79.96074000"
"Pelawatta","12138","6.40053000","80.21206180"
"Pimbura","70472","6.55867620","80.15681340"
"Pitagaldeniya","71360","7.19266780","80.30015810"
"Pokunuwita","12404","6.72886860","80.02973890"
"Poruwedanda","12432","6.73631930","80.13355590"
"Ratmale","81030","6.46117810","80.19808440"
"Remunagoda","12009","6.60790790","80.02527190"
"Talgaswela","80470","6.24410260","80.27089570"
"Tebuwana","12025","6.59227590","80.05768340"
"Uduwara","12322","6.62301950","80.06724360"
"Utumgama","12127","6.42699770","80.15123170"
"Veyangalla","12204","6.58235810","80.14736130"
"Wadduwa","12560","6.63628230","79.95284510"
"Walagedara","12112","6.44991840","80.07933420"
"Walallawita","12134","6.38055500","80.19587550"
"Waskaduwa","12580","6.62685800","79.94305370"
"Welipenna","12108","6.46819940","80.10656460"
"Weliveriya","11710","7.03134070","80.02875140"
"Welmilla Junction","12534","6.74843260","79.97148470"
"Weragala","71622","6.52935950","80.00597900"
"Yagirala","12124","6.36940910","80.16239480"
"Yatadolawatta","12104","6.52016150","80.07304910"
"Yatawara Junction","12006","6.60032430","80.03684880"
"Aludeniya","20062","7.33069300","80.56884280"
"Ambagahapelessa","20986","7.24356700","81.00644420"
"Ambagamuwa Udabulathgama","20678","7.11324900","80.61881560"
"Ambatenna","20136","7.35297890","80.61326460"
"Ampitiya","20160","7.26863590","80.66321030"
"Ankumbura","20150","7.43751890","80.56884280"
"Atabage","20574","7.13773260","80.61106310"
"Balana","20308","7.27224530","80.48822660"
"Bambaragahaela","20644","7.28914610","80.76075890"
"Batagolladeniya","20154","7.41501070","80.57856210"
"Batugoda","20132","7.36568320","80.60543550"
"Batumulla","20966","7.26447420","80.98434460"
"Bawlana","20218","7.20982270","80.72005570"
"Bopana","20932","7.30682480","80.90003310"
"Danture","20465","7.28209570","80.54106700"
"Dedunupitiya","20068","7.32662400","80.43960600"
"Dekinda","20658","7.01611380","80.51667090"
"Deltota","20430","7.17267450","80.70157100"
"Divulankadawala","51428","8.11175760","80.92906850"
"Dolapihilla","20126","7.39500360","80.57995050"
"Dolosbage","20510","7.08608120","80.46046430"
"Dunuwila","20824","7.37907490","80.64795240"
"Etulgama","20202","7.25143540","80.66452750"
"Galaboda","20664","6.98119520","80.52717560"
"Galagedara","20100","7.36996830","80.53273240"
"Galaha","20420","7.19684440","80.67153170"
"Galhinna","20152","7.41602200","80.56328840"
"Gampola","20500","7.12677700","80.56467700"
"Gelioya","20620","7.21531510","80.59799730"
"Godamunna","20214","7.22808190","80.70064960"
"Gomagoda","20184","7.30505700","80.61881560"
"Gonagantenna","20712","7.29057150","80.63372620"
"Gonawalapatana","20656","7.29057150","80.63372620"
"Gunnepana","20270","7.32286100","80.65913260"
"Gurudeniya","20189","7.26311390","80.71816510"
"Hakmana","81300","7.31433950","80.80416350"
"Handaganawa","20984","7.26730780","80.99263270"
"Handawalapitiya","20438","7.04470080","80.51606080"
"Handessa","20480","7.23030520","80.58203300"
"Hanguranketha","20710","7.29057150","80.63372620"
"Harangalagama","20669","7.29057150","80.63372620"
"Hataraliyadda","20060","7.33688600","80.47181430"
"Hindagala","20414","7.23674630","80.60354940"
"Hondiyadeniya","20524","7.32102140","80.61584050"
"Hunnasgiriya","20948","7.29917070","80.85161730"
"Inguruwatta","60064","7.17678210","80.60216140"
"Jambugahapitiya","20822","7.35952440","80.63893500"
"Kadugannawa","20300","7.25497250","80.51883960"
"Kahataliyadda","20924","7.33577980","80.47115370"
"Kalugala","20926","7.38690830","80.89726730"
"Kandy","20000","7.27974620","80.62020330"
"Kapuliyadde","20206","7.23911780","80.71072330"
"Katugastota","20800","7.33599030","80.62140050"
"Katukitula","20588","7.08155280","80.66794850"
"Kelanigama","20688","6.97648370","80.48151140"
"Kengalla","20186","7.29253660","80.72282770"
"Ketaboola","20660","7.01016490","80.58962260"
"Ketakumbura","20306","7.28327560","80.66182340"
"Kobonila","20928","7.29057150","80.63372620"
"Kolabissa","20212","7.16928430","80.73246460"
"Kolongoda","20971","7.47215410","80.94565530"
"Kulugammana","20048","7.31827420","80.59585190"
"Kumbukkandura","20902","7.30459410","80.74214100"
"Kumburegama","20086","7.35091190","80.54776870"
"Kundasale","20168","7.28219950","80.69427580"
"Leemagahakotuwa","20482","7.21536260","80.57105550"
"Ihala Kobbekaduwa","20042","7.31288880","80.56027950"
"Lunugama","11062","7.19830890","80.58064470"
"Lunuketiya Maditta","20172","7.29057150","80.63372620"
"Madawala Bazaar","20260","7.32755930","80.67430530"
"Madawalalanda","32016","7.18419030","81.67472950"
"Madugalla","20938","7.25845310","80.88343670"
"Madulkele","20840","7.39292340","80.72389960"
"Mahadoraliyadda","20945","7.33577980","80.47115370"
"Mahamedagama","20216","7.22160320","80.71412800"
"Mahanagapura","32018","6.32520790","81.21057130"
"Mailapitiya","20702","7.22779430","80.75192720"
"Makkanigama","20828","7.34551600","80.70342220"
"Makuldeniya","20921","7.34041540","80.77963130"
"Mangalagama","32069","7.29214700","80.63451000"
"Mapakanda","20662","7.23017010","80.60771320"
"Marassana","20210","7.20636030","80.74638520"
"Marymount Colony","20714","7.29057150","80.63372620"
"Mawatura","20564","7.08809270","80.57328790"
"Medamahanuwara","20940","7.28645840","80.81701670"
"Medawala Harispattuwa","20120","7.35750070","80.57439690"
"Meetalawa","20512","7.13712680","80.52600060"
"Megoda Kalugamuwa","20409","7.20719150","80.60907330"
"Menikdiwela","20470","7.14489710","80.53838360"
"Menikhinna","20170","7.31745810","80.70203590"
"Mimure","20923","7.43264530","80.84608220"
"Minigamuwa","20109","7.34132310","80.50355480"
"Minipe","20983","7.22745230","81.00091990"
"Moragahapallama","32012","7.30269050","80.62927990"
"Murutalawa","20232","7.29867830","80.56884280"
"Muruthagahamulla","20526","7.20709420","80.58689210"
"Nanuoya","22150","6.94031580","80.74084290"
"Naranpanawa","20176","7.34413090","80.73322160"
"Narawelpita","81302","7.29057150","80.63372620"
"Nawalapitiya","20650","7.04470080","80.51606080"
"Nawathispane","20670","7.03981720","80.60385780"
"Nillambe","20418","7.19950170","80.61300540"
"Nugaliyadda","20204","7.23754640","80.69561280"
"Ovilikanda","21020","7.45254660","80.58411550"
"Pallekotuwa","20084","6.02501430","80.21804080"
"Panwilatenna","20544","7.15582330","80.63193290"
"Paradeka","20578","7.12389050","80.61881560"
"Pasbage","20654","7.00785470","80.53273240"
"Pattitalawa","20511","7.11224550","80.47228170"
"Peradeniya","20400","7.26986530","80.59383300"
"Pilimatalawa","20450","7.25884400","80.54025890"
"Poholiyadda","20106","7.24902840","80.65061490"
"Pubbiliya","21502","7.38628780","80.48409740"
"Pupuressa","20546","7.14358860","80.67153170"
"Pussellawa","20580","7.11098270","80.63824130"
"Putuhapuwa","20906","7.33592530","80.75608340"
"Rajawella","20180","7.29635490","80.73010350"
"Rambukpitiya","20676","8.56611110","80.22638890"
"Rambukwella","20128","7.29100470","80.77824630"
"Rangala","20922","7.32297530","80.77547630"
"Rantembe","20990","7.19960590","80.94962880"
"Sangarajapura","20044","7.32172700","80.51825350"
"Senarathwela","20904","7.28271720","80.76439520"
"Talatuoya","20200","7.24776190","80.68539860"
"Teldeniya","20900","7.31538190","80.74493090"
"Tennekumbura","20166","7.28327560","80.66182340"
"Uda Peradeniya","20404","7.26399420","80.60384950"
"Udahentenna","20506","7.09592590","80.52279280"
"Udatalawinna","20802","7.34174960","80.65072680"
"Udispattuwa","20916","7.31415770","80.78482470"
"Ududumbara","20950","7.31438630","80.87790380"
"Uduwahinna","20934","7.29057150","80.63372620"
"Uduwela","20164","7.26257160","80.63300950"
"Ulapane","20562","7.09876450","80.56051110"
"Unuwinna","20708","7.20522760","80.76879140"
"Velamboda","20640","7.20096370","80.54801180"
"Watagoda","22110","7.39523860","80.59105670"
"Watagoda Harispattuwa","20134","7.39523860","80.59105670"
"Wattappola","20454","7.23411760","80.54106700"
"Weligampola","20666","7.04210070","80.51883960"
"Wendaruwa","20914","7.26511460","80.81701670"
"Weragantota","20982","7.32991440","80.98572600"
"Werapitya","20908","7.36454780","80.75138200"
"Werellagama","20080","7.31577890","80.57950500"
"Wettawa","20108","7.36437410","80.51160780"
"Yahalatenna","20234","7.31478000","80.57109060"
"Yatihalagala","20034","7.29440420","80.59672060"
"Alawala","11122","7.19813610","80.28648620"
"Alawatura","71204","7.13333300","80.33333300"
"Alawwa","60280","7.29543020","80.23662610"
"Algama","71607","7.15632470","80.16588300"
"Alutnuwara","71508","6.68614570","80.74638520"
"Ambalakanda","71546","7.13767300","80.44795000"
"Ambulugala","71503","7.23676530","80.41317800"
"Amitirigala","71320","7.02988480","80.18471670"
"Ampagala","71232","7.07990050","80.29066590"
"Anhandiya","60074","7.46171720","80.48201240"
"Anhettigama","71403","6.92425410","80.37703340"
"Aranayaka","71540","7.14966510","80.46498290"
"Aruggammana","71041","7.11624740","80.30955840"
"Batuwita","71321","6.74623400","80.03952050"
"Beligala(Sab)","71044","7.27845860","80.29096310"
"Belihuloya","70140","6.71459120","80.78721850"
"Berannawa","71706","7.06627550","80.40204800"
"Bopitiya","60155","7.32012270","80.07863590"
"Bopitiya (SAB)","71612","7.16826830","80.19587550"
"Boralankada","71418","6.97734990","80.33802130"
"Bossella","71208","7.14727070","80.39787380"
"Bulathkohupitiya","71230","7.10452810","80.33604700"
"Damunupola","71034","7.19251700","80.33523640"
"Debathgama","71037","7.17830540","80.41874250"
"Dedugala","71237","7.09556450","80.40483060"
"Deewala Pallegama","71022","7.17292530","80.36220460"
"Dehiowita","71400","6.96389480","80.26419100"
"Deldeniya","71009","7.28230050","80.36168900"
"Deloluwa","71401","7.25133170","80.34637540"
"Deraniyagala","71430","6.93491980","80.33802130"
"Dewalegama","71050","7.27737960","80.31852520"
"Dewanagala","71527","7.21804520","80.47297680"
"Dombemada","71115","7.38409630","80.35124820"
"Dorawaka","71601","7.18910810","80.22426240"
"Dunumala","71605","7.14735240","80.21261090"
"Galapitamada","71603","7.13934840","80.23474530"
"Galatara","71505","7.25133170","80.34637540"
"Galigamuwa Town","71350","7.23594070","80.31156120"
"Gallella","70062","6.70779850","80.49660620"
"Galpatha(Sab)","71312","7.05310740","80.27951950"
"Gantuna","71222","7.12746820","80.40483060"
"Getahetta","70620","6.90584960","80.22663120"
"Godagampola","70556","6.88097930","80.31729520"
"Gonagala","71318","7.01811020","80.20935370"
"Hakahinna","71352","7.20704970","80.30170420"
"Hakbellawaka","71715","6.99455040","80.32443620"
"Halloluwa","20032","7.30186820","80.59383300"
"Hedunuwewa","22024","7.05677800","80.65350110"
"Hemmatagama","71530","7.17336010","80.50077550"
"Hewadiwela","71108","7.37067080","80.37839160"
"Hingula","71520","7.24791280","80.46811100"
"Hinguralakanda","71417","6.91323470","80.27830300"
"Hingurana","32010","7.22691760","81.67472950"
"Hiriwadunna","71014","7.28745490","80.38465420"
"Ihala Walpola","80134","7.34849750","80.40204800"
"Ihalagama","70144","7.22236400","80.27724350"
"Imbulana","71313","7.07241270","80.25025350"
"Imbulgasdeniya","71055","7.30986000","80.31835110"
"Kabagamuwa","71202","7.13641300","80.33976180"
"Kahapathwala","60062","7.39388200","80.46463530"
"Kandaketya","90020","7.25081670","80.37145700"
"Kannattota","71372","7.09472260","80.28228110"
"Karagahinna","21014","7.20704970","80.30170420"
"Kegalle","71000","7.25133170","80.34637540"
"Kehelpannala","71533","7.16660300","80.51924500"
"Ketawala Leula","20198","7.26166000","80.68054550"
"Kitulgala","71720","6.98978450","80.42708850"
"Kondeniya","71501","7.27205560","80.38117510"
"Kotiyakumbura","71370","7.12434010","80.28718280"
"Lewangama","71315","7.10743580","80.24216720"
"Mahabage","71722","7.02209340","80.44934050"
"Makehelwala","71507","7.28193860","80.47019640"
"Malalpola","71704","7.05166920","80.33802130"
"Maldeniya","22021","6.93595660","80.27603180"
"Maliboda","71411","6.89059220","80.43960600"
"Maliyadda","90022","6.90051230","79.86842270"
"Malmaduwa","71325","7.13677730","80.27812620"
"Marapana","70041","6.65895580","80.42987040"
"Mawanella","71500","7.23103050","80.47767140"
"Meetanwala","60066","7.25133170","80.34637540"
"Migastenna Sabara","71716","7.25227040","80.33963850"
"Miyanawita","71432","6.88613020","80.36178500"
"Molagoda","71016","7.25979540","80.39884800"
"Morontota","71220","7.17571880","80.35890490"
"Narangala","90064","7.17394400","80.43436400"
"Narangoda","60152","7.19701280","80.29623850"
"Nattarampotha","20194","7.28083760","80.67291850"
"Nelundeniya","71060","7.23084430","80.26001000"
"Niyadurupola","71602","7.16751890","80.21840250"
"Noori","71407","6.94485410","80.40274360"
"Pannila","12114","6.86839660","80.32409600"
"Pattampitiya","71130","7.31182390","80.43534990"
"Pilawala","20196","7.30149520","80.38674170"
"Pothukoladeniya","71039","7.16747710","80.31504330"
"Puswelitenna","60072","7.25081670","80.37145700"
"Rambukkana","71100","7.27922720","80.38338030"
"Rilpola","90026","6.95461930","81.06456800"
"Rukmale","11129","6.85246830","79.98034150"
"Ruwanwella","71300","7.04587350","80.25370630"
"Samanalawewa","70142","6.67500500","80.78655580"
"Seaforth Colony","71708","7.25133170","80.34637540"
"Colombo 2","00200","6.91993310","79.85402740"
"Spring Valley","90028","7.25133170","80.34637540"
"Talgaspitiya","71541","7.17379560","80.47655430"
"Teligama","71724","7.25133170","80.34637540"
"Tholangamuwa","71619","7.23781070","80.23554680"
"Thotawella","71106","7.23639400","80.31495500"
"Udaha Hawupe","70154","7.25133170","80.34637540"
"Udapotha","71236","7.09758690","80.37421630"
"Uduwa","20052","7.10856680","80.39091640"
"Undugoda","71200","7.13977700","80.35751280"
"Ussapitiya","71510","7.21616020","80.44655940"
"Wahakula","71303","7.06751980","80.20703280"
"Waharaka","71304","7.07946370","80.19883930"
"Wanaluwewa","11068","7.25133170","80.34637540"
"Warakapola","71600","7.22680330","80.19587550"
"Watura","71035","7.25133170","80.34637540"
"Weeoya","71702","7.06322130","80.33571390"
"Wegalla","71234","7.25133170","80.34637540"
"Weligalla","20610","7.18887650","80.59140380"
"Welihelatenna","71712","7.28311710","80.38454330"
"Wewelwatta","70066","6.70526590","80.47610540"
"Yatagama","71116","7.33010560","80.35784920"
"Yatapana","71326","7.13158740","80.30756390"
"Yatiyantota","71700","7.02888240","80.29554190"
"Yattogoda","71029","7.24433740","80.26837180"
"Kandavalai","42508","9.40909980","80.52186610"
"Karachchi",NULL,"9.38352270","80.40840650"
"Kilinochchi","42400","9.38028860","80.37699990"
"Pachchilaipalli","42550","9.56732280","80.38813330"
"Poonakary","42600","9.50331090","80.21121640"
"Akurana","20850","7.36889590","80.61312250"
"Alahengama","60416","7.48176950","80.36088760"
"Alahitiyawa","60182","7.46205090","80.04371230"
"Ambakote","60036","7.49394280","80.45768350"
"Ambanpola","60650","7.91811440","80.24049590"
"Andiyagala","50112","7.46666710","80.13333290"
"Anukkane","60214","7.50258040","80.12331750"
"Aragoda","60308","7.36467220","80.34776760"
"Ataragalla","60706","7.91804160","80.29484530"
"Awulegama","60462","7.48176950","80.36088760"
"Balalla","60604","7.80709260","80.25426980"
"Bamunukotuwa","60347","7.57088740","80.24746570"
"Bandara Koswatta","60424","7.61207120","80.17495160"
"Bingiriya","60450","7.59822340","79.93721900"
"Bogamulla","60107","7.45722470","80.16797990"
"Boraluwewa","60437","7.68506230","80.04476020"
"Boyagane","60027","7.44999300","80.34219840"
"Bujjomuwa","60291","7.27361380","80.20563820"
"Buluwala","60076","7.48041800","80.47330290"
"Dadayamtalawa","32046","7.48176950","80.36088760"
"Dambadeniya","60130","7.36971470","80.15123170"
"Daraluwa","60174","7.35531880","79.98361080"
"Deegalla","60228","7.51124380","80.03393120"
"Demataluwa","60024","7.51786650","80.28797560"
"Demuwatha","70332","7.48684730","80.36514920"
"Diddeniya","60544","7.69904850","80.46050360"
"Digannewa","60485","7.89331550","80.10097960"
"Divullegoda","60472","7.76266490","80.20163350"
"Diyasenpura","51504","8.13236550","81.02059850"
"Dodangaslanda","60530","7.57567740","80.52439700"
"Doluwa","20532","7.62156470","80.41874250"
"Doragamuwa","20816","7.36589550","80.65627530"
"Doratiyawa","60013","7.45346260","80.39404730"
"Dunumadalawa","50214","7.28090960","80.64222390"
"Dunuwilapitiya","21538","7.48176950","80.36088760"
"Ehetuwewa","60716","7.93567610","80.34618760"
"Elibichchiya","60156","7.31429910","80.05628640"
"Embogama","60718","7.82330090","80.32409600"
"Etungahakotuwa","60266","7.51223530","79.96770490"
"Galadivulwewa","50210","7.48176950","80.36088760"
"Galgamuwa","60700","7.98649440","80.28787940"
"Gallellagama","20095","7.48176950","80.36088760"
"Gallewa","60712","7.88701170","80.06187430"
"Ganegoda","80440","7.63326800","80.46324500"
"Girathalana","60752","8.03476110","80.41037760"
"Gokaralla","60522","7.59886850","80.48270740"
"Gonawila","60170","7.39880630","80.20005960"
"Halmillawewa","60441","7.77075630","80.49382670"
"Handungamuwa","21536","7.48176950","80.36088760"
"Harankahawa","20092","7.48176950","80.36088760"
"Helamada","71046","7.48176950","80.36088760"
"Hengamuwa","60414","7.70035780","80.11214930"
"Hettipola","60430","7.53311240","80.91524340"
"Hewainna","10714","6.89755820","80.19587550"
"Hilogama","60486","7.48176950","80.36088760"
"Hindagolla","60034","7.48667050","80.41607830"
"Hiriyala Lenawa","60546","7.63887370","80.47436690"
"Hiruwalpola","60458","7.54778030","79.93745820"
"Horambawa","60181","7.45722470","80.16797990"
"Hulogedara","60474","7.78954430","80.19081820"
"Hulugalla","60477","7.59243750","80.57995310"
"Ihala Gomugomuwa","60211","7.47038950","80.04532310"
"Ihala Katugampala","60135","7.39470370","80.09875050"
"Indulgodakanda","60016","7.42336680","80.40761320"
"Ithanawatta","60025","7.48176950","80.36088760"
"Kadigawa","60492","7.71919830","80.00071420"
"Kalankuttiya","50174","7.48684730","80.36514920"
"Kalatuwawa","10718","6.85000000","80.20000000"
"Kalugamuwa","60096","7.39215900","80.44655940"
"Kanadeniyawala","60054","7.43813990","80.53393440"
"Kanattewewa","60422","7.61852160","80.20703290"
"Kandegedara","90070","7.35295450","80.20773000"
"Karagahagedara","60106","7.47785930","80.21261090"
"Karambe","60602","7.80756910","80.34080610"
"Katiyawa","50261","7.62687380","80.55012180"
"Katupota","60350","7.55053450","80.19086420"
"Kawudulla","51414","8.16101810","80.91386260"
"Kawuduluwewa Stagell","51514","7.48176950","80.36088760"
"Kekunagolla","60183","7.49836470","80.17355650"
"Keppitiwalana","60288","7.32257710","80.19029630"
"Kimbulwanaoya","60548","7.48176950","80.36088760"
"Kirimetiyawa","60184","7.51234310","80.14146270"
"Kirindawa","60212","7.49673230","80.10097960"
"Kirindigalla","60502","7.55328810","80.47992730"
"Kithalawa","60188","7.45933590","80.10097960"
"Kitulwala","11242","7.50632780","80.53551070"
"Kobeigane","60410","7.66057680","80.12661590"
"Kohilagedara","60028","7.40586090","80.33853900"
"Konwewa","60630","7.98498420","80.28091290"
"Kosdeniya","60356","7.57260270","80.14564960"
"Kosgolla","60029","7.40101800","80.39300370"
"Kotagala","22080","6.92968060","80.60493740"
"Colombo 13","01300","6.94876640","79.86048310"
"Kotawehera","60483","7.80900070","80.07797730"
"Kudagalgamuwa","60003","7.55700800","80.34498310"
"Kudakatnoruwa","60754","7.48176950","80.36088760"
"Kuliyapitiya","60200","7.47212300","80.04462210"
"Kumaragama","51412","7.48176950","80.36088760"
"Kumbukgeta","60508","7.67242180","80.41596030"
"Kumbukwewa","60506","7.64050560","80.42708850"
"Kuratihena","60438","7.48176950","80.36088760"
"Kurunegala","60000","7.49483690","80.37838420"
"Ibbagamuwa","60500","7.55541010","80.45644300"
"Ihala Kadigamuwa","60238","7.44155470","80.02275140"
"Lihiriyagama","61138","7.34755590","79.93466030"
"Illagolla","20724","7.16736970","80.81733640"
"Ilukhena","60232","7.53042710","80.00225670"
"Lonahettiya","60108","7.51154710","80.22516030"
"Madahapola","60552","7.45051990","80.19433970"
"Madakumburumulla","60209","7.44626040","79.99479560"
"Madalagama","70158","7.34316800","80.30947190"
"Madawala Ulpotha","21074","7.61559830","80.63546650"
"Maduragoda","60532","7.57638020","80.54930710"
"Maeliya","60512","7.74752840","80.41596030"
"Magulagama","60221","7.67063750","80.21818860"
"Maha Ambagaswewa","51518","8.20978530","81.03532020"
"Mahagalkadawala","60731","8.05639110","80.28230630"
"Mahagirilla","60479","7.82923540","80.13752990"
"Mahamukalanyaya","60516","7.56265260","80.41874250"
"Mahananneriya","60724","8.00158110","80.18611160"
"Mahapallegama","71063","7.09995240","80.20777840"
"Maharachchimulla","60286","7.34960560","80.20703280"
"Mahatalakolawewa","51506","7.48176950","80.36088760"
"Mahawewa","61220","7.45980540","79.82631690"
"Maho","60600","7.81939470","80.27115880"
"Makulewa","60714","7.99594590","80.34637540"
"Makulpotha","60514","7.74416030","80.44516870"
"Makulwewa","60578","7.60961260","80.36308100"
"Malagane","60404","7.59398170","80.07130310"
"Mandapola","60434","7.63594130","80.10656460"
"Maspotha","60344","7.48176950","80.36088760"
"Mawathagama","60060","7.43690130","80.45378280"
"Medirigiriya","51500","8.13963740","80.96776580"
"Medivawa","60612","7.48176950","80.36088760"
"Meegalawa","60750","8.05271540","80.35472860"
"Meegaswewa","51508","7.80296150","80.37421630"
"Meewellawa","60484","7.75060980","80.11601730"
"Melsiripura","60540","7.64497060","80.50772370"
"Metikumbura","60304","7.48176950","80.36088760"
"Metiyagane","60121","7.39476490","80.19034420"
"Minhettiya","60004","7.58897270","80.30807900"
"Minuwangete","60406","7.50721880","80.34290880"
"Mirihanagama","60408","7.65329280","80.17981590"
"Monnekulama","60495","7.82255920","80.06187430"
"Moragane","60354","7.54678230","80.12750520"
"Moragollagama","60640","7.90662950","80.44099670"
"Morathiha","60038","7.51071560","80.49104700"
"Munamaldeniya","60218","7.54786830","80.05768340"
"Muruthenge","60122","7.43761610","80.14435980"
"Mutugala","51064","7.48818930","80.35037220"
"Nabadewa","60482","7.78161690","80.10423790"
"Nagollagama","60590","7.75351680","80.31467200"
"Nagollagoda","60226","7.56352800","80.04091780"
"Nakkawatta","60186","7.44431430","80.14564960"
"Narammala","60100","7.43251330","80.21539980"
"Nawasenapura","51066","7.48176950","80.36088760"
"Nawatalwatta","60292","7.28334030","80.19236990"
"Nelliya","60549","7.69224710","80.46324500"
"Nikaweratiya","60470","7.75544500","80.11914020"
"Nugagolla","21534","7.48176950","80.36088760"
"Nugawela","20072","7.33397190","80.22376600"
"Padeniya","60461","7.65562250","80.22062870"
"Padiwela","60236","7.54229040","79.98920340"
"Pahalagiribawa","60735","8.11756490","80.19169110"
"Pahamune","60112","7.48098480","80.41225080"
"Palagala","50111","7.94746600","80.52022900"
"Palapathwela","21070","7.53773830","80.62714150"
"Palaviya","61280","7.98124320","79.84648040"
"Pallewela","11150","7.47829810","79.99479560"
"Palukadawala","60704","7.95708350","80.29623850"
"Panadaragama","60348","7.54304430","80.22864590"
"Panagamuwa","60052","7.48991870","80.51883960"
"Panaliya","60312","7.33093560","80.32966640"
"Panapitiya","70152","7.48176950","80.36088760"
"Panliyadda","60558","7.67263930","80.54662290"
"Pansiyagama","60554","7.73521190","80.49686610"
"Parape","71105","7.37257910","80.41493250"
"Pathanewatta","90071","7.48176950","80.36088760"
"Pattiya Watta","20118","7.48176950","80.36088760"
"Perakanatta","21532","7.48176950","80.36088760"
"Periyakadneluwa","60518","7.48176950","80.36088760"
"Pihimbiya Ratmale","60439","7.57682140","80.03313450"
"Pihimbuwa","60053","7.45907940","80.51467130"
"Pilessa","60058","7.46154690","80.41248240"
"Polgahawela","60300","7.32748660","80.29345220"
"Polgolla","20250","7.31642280","80.65211390"
"Polpithigama","60620","7.82115110","80.40622190"
"Pothuhera","60330","7.42167240","80.32966640"
"Pothupitiya","70338","7.35420460","80.17355650"
"Pujapitiya","20112","7.49813340","80.38431860"
"Rakwana","70300","6.46472370","80.61604020"
"Ranorawa","50212","7.60087940","80.21261090"
"Rathukohodigala","20818","7.48176950","80.36088760"
"Ridibendiella","60606","7.48176950","80.36088760"
"Ridigama","60040","7.54963470","80.49137540"
"Saliya Asokapura","60736","8.13469970","80.18879360"
"Sandalankawa","60176","7.31510150","79.95957180"
"Sevanapitiya","51062","7.48176950","80.36088760"
"Sirambiadiya","61312","8.05712610","79.86888370"
"Sirisetagama","60478","7.48176950","80.36088760"
"Siyambalangamuwa","60646","7.52948050","80.34285300"
"Siyambalawewa","32048","7.80422750","80.42987040"
"Solepura","60737","8.15312720","80.15681340"
"Solewewa","60738","8.14705210","80.12890100"
"Sunandapura","60436","7.63659560","80.07235920"
"Talawattegedara","60306","7.48176950","80.36088760"
"Tambutta","60734","8.08740100","80.22655450"
"Tennepanguwa","90072","7.48176950","80.36088760"
"Thalahitimulla","60208","7.43050010","80.00597900"
"Thalakolawewa","60624","7.79492120","80.43404290"
"Thalwita","60572","7.58221730","80.33523640"
"Tharana Udawela","60227","7.56001430","79.99410510"
"Thimbiriyawa","60476","7.74926250","80.14006710"
"Tisogama","60453","7.59055980","79.83209660"
"Thorayaya","60499","7.50874930","80.40684690"
"Tulhiriya","71610","7.27533840","80.22376600"
"Tuntota","71062","7.19318910","80.26506200"
"Tuttiripitigama","60426","7.48176950","80.36088760"
"Udagaldeniya","71113","7.41747560","80.47506200"
"Udahingulwala","20094","7.48176950","80.36088760"
"Udawatta","20722","7.48949470","80.36093070"
"Udubaddawa","60250","7.48529250","79.96753660"
"Udumulla","71521","7.46531670","80.42056820"
"Uhumiya","60094","7.46392420","80.29853450"
"Ulpotha Pallekele","60622","7.82652290","80.43722130"
"Ulpothagama","20965","7.48176950","80.36088760"
"Usgala Siyabmalangamuwa","60732","8.09826450","80.29486960"
"Vijithapura","50110","7.48176950","80.36088760"
"Wadakada","60318","7.39754080","80.26873400"
"Wadumunnegedara","60204","7.39810800","79.97739810"
"Walakumburumulla","60198","7.42540260","80.01558170"
"Wannigama","60465","7.70780050","80.14425400"
"Wannikudawewa","60721","8.03396870","80.21749140"
"Wannilhalagama","60722","7.48176950","80.36088760"
"Wannirasnayakapura","60490","7.48176950","80.36088760"
"Warawewa","60739","8.12049370","80.14564960"
"Wariyapola","60400","7.62391440","80.24331450"
"Watareka","10511","7.39726030","80.43543370"
"Wattegama","20810","7.35033130","80.68124680"
"Watuwatta","60262","7.50830680","79.91728030"
"Weerapokuna","60454","7.65135010","79.98890560"
"Welawa Juncton","60464","7.69012190","80.17453550"
"Welipennagahamulla","60240","7.43131540","79.92757560"
"Wellagala","60402","7.62222220","80.27666670"
"Wellarawa","60456","7.55692210","80.36918790"
"Wellawa","60570","7.56154660","80.36864880"
"Welpalla","60206","7.36547860","79.96123680"
"Wennoruwa","60284","7.38049560","80.21679420"
"Weuda","60080","7.40652540","80.49382670"
"Wewagama","60195","7.42332590","80.10237590"
"Wilgamuwa","21530","7.36099280","80.20536390"
"Yakwila","60202","7.38186900","80.03812320"
"Yatigaloluwa","60314","7.32973050","80.27394580"
"Mannar","41000","8.98097430","79.90441490"
"Puthukudiyiruppu","30158","9.06038940","79.84730910"
"Akuramboda","21142","7.65000000","80.60000000"
"Alawatuwala","60047","7.45765490","80.62425990"
"Alwatta","21004","7.44890800","80.66459730"
"Ambana","21504","7.64766030","80.69233120"
"Aralaganwila","51100","7.78278190","81.18454260"
"Ataragallewa","21512","7.46746500","80.62341610"
"Bambaragaswewa","21212","7.78609140","80.53291660"
"Barawardhana Oya","20967","7.46746500","80.62341610"
"Beligamuwa","21214","7.72737210","80.54974800"
"Damana","32014","7.46746500","80.62341610"
"Dambulla","21100","7.87421700","80.65112870"
"Damminna","51106","7.75023710","81.21673770"
"Dankanda","21032","7.53472880","80.70109270"
"Delwite","60044","7.47097150","80.62306210"
"Devagiriya","21552","7.46746500","80.62341610"
"Dewahuwa","21206","7.84386120","80.57856210"
"Divuldamana","51104","7.46746500","80.62341610"
"Dullewa","21054","7.51442180","80.60077340"
"Dunkolawatta","21046","7.46746500","80.62341610"
"Elkaduwa","21012","7.41723760","80.68401210"
"Erawula Junction","21108","7.46746500","80.62341610"
"Etanawala","21402","7.46746500","80.62341610"
"Galewela","21200","7.75650450","80.57717370"
"Galoya Junction","51375","7.46746500","80.62341610"
"Gammaduwa","21068","7.57022620","80.69709690"
"Gangala Puwakpitiya","21404","7.58824670","80.75496740"
"Hasalaka","20960","7.46802280","80.62482660"
"Hattota Amuna","21514","7.61224780","80.82755060"
"Imbulgolla","21064","7.56681210","80.66692110"
"Inamaluwa","21124","7.92424990","80.68401210"
"Iriyagolla","60045","7.46746500","80.62341610"
"Kaikawala","21066","7.50769890","80.66182340"
"Kalundawa","21112","7.80335460","80.66960340"
"Kandalama","21106","7.88849850","80.71035320"
"Kavudupelella","21072","7.58020770","80.62658080"
"Kibissa","21122","7.93732850","80.72698540"
"Kiwula","21042","7.46347490","80.62644770"
"Kongahawela","21500","7.68975230","80.71589770"
"Laggala Pallegama","21520","7.59653370","80.83678340"
"Leliambe","21008","7.42250790","80.65710080"
"Lenadora","21094","7.75551730","80.66165000"
"Ihala Halmillewa","50262","8.13637740","80.35751280"
"Illukkumbura","21406","7.54413100","80.80178770"
"Madipola","51108","7.67611540","80.58272720"
"Mahawela","21140","7.58014170","80.61138060"
"Mananwatta","21144","7.68458910","80.60216140"
"Maraka","21554","7.58553720","80.96561810"
"Matale","21000","7.46746500","80.62341610"
"Melipitiya","21055","7.46746500","80.62341610"
"Metihakka","21062","7.54009730","80.65322010"
"Millawana","21154","7.64991060","80.57546640"
"Muwandeniya","21044","7.45476490","80.64097640"
"Nalanda","21082","7.66974860","80.64585600"
"Naula","21090","7.70714930","80.65211390"
"Opalgala","21076","7.62489860","80.69371770"
"Pallepola","21152","7.62297620","80.60493740"
"Pimburattewa","51102","7.71855030","81.18852930"
"Pulastigama","51050","8.04219630","81.08098480"
"Ranamuregama","21524","7.50290940","80.83303400"
"Rattota","21400","7.51727300","80.67153170"
"Selagama","21058","7.59204690","80.59404970"
"Sigiriya","21120","7.95410850","80.75469800"
"Sinhagama","51378","7.46746500","80.62341610"
"Sungavila","51052","8.07483740","81.09202180"
"Talagoda Junction","21506","7.70144770","80.76023940"
"Talakiriyagama","21116","7.82531670","80.62089720"
"Tamankaduwa","51089","7.46746500","80.62341610"
"Udasgiriya","21051","7.53517470","80.57023140"
"Udatenna","21006","7.42874250","80.64754180"
"Ukuwela","21300","7.42346230","80.63061030"
"Wahacotte","21160","7.71904370","80.58272720"
"Walawela","21048","7.51971430","80.59799730"
"Wehigala","21009","7.43822650","80.61406850"
"Welangahawatte","21408","7.54980700","80.75424470"
"Wewalawewa","21114","7.46746500","80.62341610"
"Yatawatta","21056","7.56348260","80.58767940"
"Akuressa","81400","6.10013880","80.47595670"
"Alapaladeniya","81475","6.28333300","80.45000000"
"Aparekka","81032","5.99253730","80.61604020"
"Athuraliya","81402","6.06607070","80.50227640"
"Bengamuwa","81614","6.27861390","80.60426390"
"Bopagoda","81412","6.15866160","80.49953120"
"Dampahala","81612","6.27152470","80.64010980"
"Deegala Lenama","81452","6.16598040","80.46164750"
"Deiyandara","81320","6.15256980","80.60285540"
"Denagama","81314","6.11421070","80.66164450"
"Denipitiya","81730","5.98287730","80.45180530"
"Deniyaya","81500","6.34248470","80.55965820"
"Derangala","81454","6.21891180","80.45004250"
"Devinuwara (Dondra)","81160","5.93125530","80.59143310"
"Dikwella","81200","5.97167620","80.69510410"
"Diyagaha","81038","5.98551850","80.57856010"
"Diyalape","81422","6.12295420","80.44655940"
"Gandara","81170","5.93764030","80.61326460"
"Godapitiya","81408","6.08866040","80.47908660"
"Gomilamawarala","81072","6.21009260","80.59228810"
"Hawpe","80132","6.13288520","80.48965710"
"Horapawita","81108","6.10703990","80.58272720"
"Kalubowitiyana","81478","6.31165380","80.39371820"
"Kamburugamuwa","81750","5.94458700","80.49383440"
"Kamburupitiya","81100","6.07791070","80.56328840"
"Karagoda Uyangoda","81082","6.05200090","80.52825870"
"Karaputugala","81106","6.08452960","80.60134030"
"Karatota","81318","6.06412720","80.66600920"
"Kekanadura","81020","5.96375280","80.61326460"
"Kiriweldola","81514","6.37115050","80.53551070"
"Kiriwelkele","81456","6.24224840","80.45073110"
"Kolawenigama","81522","6.32323980","80.50216520"
"Kotapola","81480","6.27797250","80.53967800"
"Lankagama","81526","6.36713720","80.46046430"
"Makandura","81070","6.14192480","80.55634490"
"Maliduwa","81424","6.13543390","80.41047430"
"Maramba","81416","6.14552080","80.48235990"
"Matara","81000","5.94953080","80.53039310"
"Mediripitiya","81524","6.35070950","80.49309040"
"Miella","81312","6.11791320","80.67161110"
"Mirissa","81740","5.94826200","80.47158660"
"Morawaka","81470","6.26528020","80.49104700"
"Mulatiyana Junction","81071","6.16208860","80.58550380"
"Nadugala","81092","5.98136590","80.54971010"
"Naimana","81017","5.96344580","80.56584960"
"Palatuwa","81050","5.97631240","80.51844180"
"Parapamulla","81322","6.15162590","80.62186660"
"Pasgoda","81615","6.24639160","80.60771320"
"Penetiyana","81722","6.04772800","80.44994740"
"Pitabeddara","81450","6.20707730","80.46324500"
"Puhulwella","81290","6.05152880","80.62575390"
"Radawela","81316","7.67275800","80.70937300"
"Ransegoda","81064","6.11862980","80.56415070"
"Rotumba","81074","6.22578800","80.57597720"
"Sultanagoda","81051","5.97724210","80.51099480"
"Telijjawila","81060","6.02508460","80.49591140"
"Thihagoda","81280","6.01333870","80.56600410"
"Urubokka","81600","6.30652970","80.63061030"
"Urugamuwa","81230","6.01007300","80.64795240"
"Urumutta","81414","6.16195980","80.51692520"
"Viharahena","81508","6.38276970","80.60202340"
"Walakanda","81294","6.02305050","80.65586580"
"Walasgala","81220","5.98284010","80.69857010"
"Waralla","81479","6.27638310","80.52439700"
"Weligama","81700","5.97303210","80.42280410"
"Wilpita","81404","5.94603270","80.55772880"
"Yatiyana","81034","6.03027130","80.60632530"
"Ayiwela","91516","7.10702560","81.25048550"
"Badalkumbura","91070","6.89559920","81.23635890"
"Baduluwela","91058","6.99340090","81.05498150"
"Bakinigahawela","91554","6.99824690","81.28508070"
"Balaharuwa","91295","6.53084900","81.06442630"
"Bibile","91500","6.86086240","81.35025410"
"Buddama","91038","7.04054500","81.48880660"
"Buttala","91100","6.75892330","81.24912980"
"Dambagalla","91050","6.94999990","81.36666710"
"Diyakobala","91514","7.15884730","81.19934040"
"Dombagahawela","91010","6.90764870","81.50941940"
"Ethimalewewa","91020","6.81115120","81.50203280"
"Ettiliwewa","91250","6.89064540","81.34544170"
"Galabedda","91008","6.91911390","81.38509100"
"Gamewela","90512","6.92464050","81.20533240"
"Hambegamuwa","91308","6.53863360","80.96301560"
"Hingurukaduwa","90508","6.82574560","81.16298410"
"Hulandawa","91004","6.85467910","81.33856630"
"Inginiyagala","91040","7.21381560","81.54318720"
"Kandaudapanguwa","91032","6.98034640","81.54148000"
"Kandawinna","91552","6.89064540","81.34544170"
"Kataragama","91400","6.41354630","81.33256790"
"Kotagama","91512","7.11098880","81.18026190"
"Kotamuduna","90506","6.89022610","81.17750590"
"Kotawehera Mankada","91312","6.64690700","80.90847550"
"Kudawewa","61226","8.56222220","80.69388890"
"Kumbukkana","91098","6.81059500","81.30066680"
"Marawa","91006","6.80900980","81.38118390"
"Mariarawa","91052","6.96837810","81.47620430"
"Medagana","91550","7.03447320","81.27600400"
"Medawelagama","90518","7.03447320","81.27600400"
"Miyanakandura","90584","6.89064540","81.34544170"
"Monaragala","91000","6.89064540","81.34544170"
"Moretuwegama","91108","6.89064540","81.34544170"
"Nakkala","91003","6.88999620","81.29843090"
"Namunukula","90580","6.87447870","81.11547030"
"Nannapurawa","91519","7.08537010","81.25931330"
"Nelliyadda","91042","7.38785580","81.41690930"
"Nilgala","91508","7.19333790","81.39639010"
"Obbegoda","91007","6.92507090","81.35408600"
"Okkampitiya","91060","6.75003500","81.30761930"
"Pangura","91002","6.97668660","81.32008930"
"Pitakumbura","91505","7.17869360","81.29312200"
"Randeniya","91204","6.80151990","81.11409120"
"Ruwalwela","91056","6.86108030","81.33918040"
"Sella Kataragama","91405","6.43732850","81.29867670"
"Siyambalagune","91202","6.89064540","81.34544170"
"Siyambalanduwa","91030","6.90646360","81.56101380"
"Suriara","91306","6.89064540","81.34544170"
"Thanamalwila","91300","6.43975480","81.13339680"
"Uva Gangodagama","91054","7.01985990","81.43339230"
"Uva Kudaoya","91298","6.53279710","81.17474980"
"Uva Pelwatta","91112","6.74473370","81.19679580"
"Warunagama","91198","6.73234260","81.13408620"
"Wedikumbura","91005","6.89559920","81.23635890"
"Weherayaya Handapanagala","91206","6.64359030","81.11825900"
"Wellawaya","91200","6.73773560","81.10305730"
"Wilaoya","91022","6.76778200","81.69721660"
"Yudaganawa","51424","6.77425080","81.23511310"
"Mullativu","42000","9.26709110","80.81424800"
"Agarapathana","22094","6.86724310","80.71217540"
"Ambatalawa","20686","7.05000000","80.66666690"
"Ambewela","22216","6.87871950","80.81355580"
"Bogawantalawa","22060","6.79723370","80.67569200"
"Bopattalawa","22095","6.80901900","80.69590130"
"Dagampitiya","20684","6.97747550","80.47436690"
"Dayagama Bazaar","22096","6.85612990","80.74742610"
"Dikoya","22050","6.87513130","80.60067720"
"Doragala","20567","6.95627300","80.78471800"
"Dunukedeniya","22002","6.99002820","80.63685390"
"Egodawela","90013","6.96448360","80.76335990"
"Ekiriya","20732","7.14825510","80.75435170"
"Elamulla","20742","7.05668610","80.76843740"
"Ginigathena","20680","6.98931710","80.49269330"
"Gonakele","22226","6.98379580","80.75815850"
"Haggala","22208","6.91868170","80.83103180"
"Halgranoya","22240","7.00678340","80.86520380"
"Hangarapitiya","22044","6.92040700","80.47255650"
"Hapugasthalawa","20668","7.05781340","80.57300840"
"Harasbedda","22262","7.06263870","80.88205350"
"Hatton","22000","6.89221530","80.59857650"
"Hewaheta","20440","7.11183660","80.76335630"
"Hitigegama","22046","6.95060760","80.45768350"
"Jangulla","90063","6.94971660","80.78910680"
"Kalaganwatta","22282","7.10063900","80.89945790"
"Kandapola","22220","7.00025120","80.81840100"
"Karandagolla","20738","7.05701940","80.90072450"
"Keerthi Bandarapura","22274","7.14589980","80.85300100"
"Kiribathkumbura","20442","7.26962890","80.57571610"
"Kotiyagala","91024","6.78550740","80.68539860"
"Kotmale","20560","7.02230890","80.59105670"
"Kottellena","22040","6.89316840","80.50216520"
"Kumbalgamuwa","22272","7.11248390","80.84608220"
"Kumbukwela","22246","7.05346520","80.88896920"
"Kurupanawela","22252","7.01672620","80.91386080"
"Labukele","20592","7.02431540","80.71909510"
"Laxapana","22034","6.92475840","80.49104700"
"Lindula","22090","6.90189800","80.67165240"
"Madulla","22256","7.01944190","80.92130100"
"Mandaram Nuwara","20744","7.04201080","80.77963130"
"Maskeliya","22070","6.83292940","80.57092560"
"Maswela","20566","7.06397370","80.63304790"
"Maturata","20748","6.99108740","80.83380120"
"Mipanawa","22254","6.97314000","80.76664000"
"Mipilimana","22214","6.93045680","80.77963130"
"Morahenagama","22036","6.94575120","80.47992730"
"Munwatta","20752","7.11578960","80.81147920"
"Nayapana Janapadaya","20568","7.06653840","80.60653300"
"Nildandahinna","22280","7.08011970","80.89173530"
"Nissanka Uyana","22075","6.94971660","80.78910680"
"Norwood","22058","6.83842070","80.61465240"
"Nuwara Eliya","22200","6.94795810","80.78851030"
"Padiyapelella","20750","7.09357490","80.79832620"
"Pallebowala","20734","7.15150470","80.73391440"
"Panvila","20830","7.40042080","80.73290790"
"Pitawala","20682","6.99836950","80.45768350"
"Pundaluoya","22120","7.01312780","80.66321030"
"Ramboda","20590","7.05654680","80.69384740"
"Rikillagaskada","20730","7.14865160","80.79071030"
"Rozella","22008","6.92768270","80.55854600"
"Rupaha","22245","7.03225930","80.90432340"
"Ruwaneliya","22212","6.94208920","80.77681290"
"Santhipura","22202","6.97894530","80.74777080"
"Talawakele","22100","6.93879140","80.66321030"
"Tawalantenna","20838","7.07068220","80.68401210"
"Teripeha","22287","7.11404420","80.91442850"
"Udamadura","22285","7.09657370","80.91662600"
"Udapussallawa","22250","7.01271230","80.91247810"
"Uva Deegalla","90062","6.94971660","80.78910680"
"Uva Uduwara","90061","6.93044210","81.05614580"
"Uvaparanagama","90230","6.94971660","80.78910680"
"Walapane","22270","7.10216630","80.86268640"
"Watawala","22010","6.94494680","80.53898340"
"Widulipura","22032","6.90940570","80.51883960"
"Wijebahukanda","22018","6.94971660","80.78910680"
"Attanakadawala","51235","7.93309540","80.87029550"
"Bakamuna","51250","7.78060200","80.81840100"
"Diyabeduma","51225","7.92974320","80.87098720"
"Elahera","51258","7.73438700","80.79347980"
"Giritale","51026","8.00235640","80.92492120"
"Hingurakdamana","51408","8.04158880","80.95323590"
"Hingurakgoda","51400","8.04158880","80.95323590"
"Jayanthipura","51024","7.94831560","81.00178270"
"Kalingaela","51002","7.94033840","81.01879840"
"Lakshauyana","51006","7.99050680","80.99953870"
"Mankemi","30442","7.94033840","81.01879840"
"Minneriya","51410","8.03867090","80.90639220"
"Onegama","51004","7.97767770","81.09202180"
"Orubendi Siyambalawa","51256","7.75360980","80.81286360"
"Palugasdamana","51046","7.96545990","81.02577630"
"Panichankemi","30444","7.94033840","81.01879840"
"Polonnaruwa","51000","7.96191410","80.99523530"
"Talpotha","51044","8.03145710","81.03401510"
"Tambala","51049","8.00939770","81.06970530"
"Unagalavehera","51008","8.01190430","80.99125140"
"Wijayabapura","51042","7.82271190","81.18569940"
"Adippala","61012","7.67343660","79.87728340"
"Alutgama","12080","7.56666700","79.90000000"
"Alutwewa","51014","7.98333300","80.40000000"
"Ambakandawila","61024","7.52756270","79.79363220"
"Anamaduwa","61500","7.87777030","80.01111560"
"Andigama","61508","7.77828890","79.94864890"
"Angunawila","61264","7.75339880","79.86048310"
"Attawilluwa","61328","7.96055990","79.88008320"
"Bangadeniya","61238","7.62805620","79.82547220"
"Baranankattuwa","61262","7.80192840","79.87168370"
"Battuluoya","61246","7.73377000","79.82407150"
"Bujjampola","61136","7.32716380","79.91647170"
"Chilaw","61000","7.56198940","79.80165690"
"Dalukana","51092","8.04079130","79.83938600"
"Dankotuwa","61130","7.29746350","79.88218810"
"Dewagala","51094","8.04079130","79.83938600"
"Dummalasuriya","60260","7.49240010","79.91087440"
"Dunkannawa","61192","7.41867940","79.91003190"
"Eluwankulama","61308","8.27308210","79.88008320"
"Ettale","61343","8.04079130","79.83938600"
"Galamuna","51416","7.46616800","79.87308370"
"Galmuruwa","61233","7.50282450","79.89967890"
"Hansayapalama","51098","8.04079130","79.83938600"
"Ihala Kottaramulla","61154","7.37820890","79.87588350"
"Ilippadeniya","61018","7.57059860","79.82687290"
"Inginimitiya","61514","7.98668480","79.95908080"
"Ismailpuram","61302","8.04079130","79.83938600"
"Jayasiripura","51246","7.57565870","80.04510950"
"Kakkapalliya","61236","7.52771560","79.82127000"
"Kalkudah","30410","8.11736840","79.71523340"
"Kalladiya","61534","7.99048070","79.89408060"
"Kandakuliya","61358","8.20374730","79.70072110"
"Karathivu","61307","8.04079130","79.83938600"
"Karawitagara","61022","7.56708100","79.84788080"
"Karuwalagaswewa","61314","8.05657590","79.95564240"
"Katuneriya","61180","7.37062070","79.83527670"
"Koswatta","61158","7.39206080","79.90126710"
"Kottantivu","61252","7.86167050","79.79044750"
"Kottapitiya","51244","7.63588320","79.81706750"
"Kottukachchiya","61532","7.94069150","79.94725020"
"Kumarakattuwa","61032","7.63411080","79.87432630"
"Kurinjanpitiya","61356","8.04079130","79.83938600"
"Kuruketiyawa","61516","8.02027780","80.05361110"
"Lunuwila","61150","7.35587820","79.87265240"
"Madampe","61230","7.49723360","79.84133190"
"Madurankuliya","61270","7.90806630","79.82127000"
"Mahakumbukkadawala","61272","7.84787790","79.88568240"
"Mahauswewa","61512","7.92412600","80.09679060"
"Mampitiya","51090","8.04079130","79.83938600"
"Mampuri","61341","8.00353730","79.74072560"
"Mangalaeliya","61266","7.85990910","79.82046190"
"Marawila","61210","7.42394280","79.83527670"
"Mudalakkuliya","61506","7.90806630","79.82127000"
"Mugunuwatawana","61014","7.58338240","79.85908300"
"Mukkutoduwawa","61274","7.91833330","79.76027780"
"Mundel","61250","7.79755870","79.80165690"
"Muttibendiwila","61195","8.04079130","79.83938600"
"Nainamadama","61120","7.31486810","79.84367960"
"Nalladarankattuwa","61244","7.66371710","79.83930340"
"Nattandiya","61190","7.41248700","79.85908300"
"Nawagattegama","61520","8.00129060","80.10379000"
"Nelumwewa","51096","8.01349020","79.87002700"
"Norachcholai","61342","8.01316760","79.72423930"
"Pallama","61040","7.68439390","79.92579690"
"Palliwasalturai","61354","8.04079130","79.83938600"
"Panirendawa","61234","7.49188440","79.88848190"
"Parakramasamudraya","51016","7.89959000","80.97052920"
"Pothuwatawana","61162","7.35854110","79.91647120"
"Puttalam","61300","8.04079130","79.83938600"
"Puttalam Cement Factory","61326","7.98782750","79.86818370"
"Rajakadaluwa","61242","7.65644900","79.83807780"
"Saliyawewa Junction","61324","8.19340770","80.09399780"
"Serukele","61042","7.72661490","79.91813320"
"Siyambalagashene","61504","8.04079130","79.83938600"
"Tabbowa","61322","8.08612210","79.92635980"
"Talawila Church","61344","8.11254360","79.70345860"
"Toduwawa","61224","7.48590270","79.80305800"
"Udappuwa","61004","7.73584470","79.79885470"
"Uridyawa","61502","8.04079130","79.83938600"
"Vanathawilluwa","61306","8.18693150","79.86118320"
"Waikkal","61110","7.28379190","79.85776340"
"Watugahamulla","61198","8.04079130","79.83938600"
"Wennappuwa","61170","7.34930370","79.83527670"
"Wijeyakatupotha","61006","7.72412290","79.86888370"
"Wilpotha","61008","7.74582630","79.88008320"
"Yodaela","51422","7.56666670","79.86666670"
"Yogiyana","61144","7.28876750","79.92626600"
"Akarella","70082","6.59053290","80.64795240"
"Amunumulla","90204","6.71459120","80.78721850"
"Atakalanpanna","70294","6.54066950","80.59105670"
"Ayagama","70024","6.63772660","80.31255370"
"Balangoda","70100","6.64252200","80.68873330"
"Batatota","70504","6.70557420","80.38473450"
"Beralapanathara","81541","6.70557420","80.38473450"
"Bogahakumbura","90354","6.86329850","80.87375390"
"Bolthumbe","70131","6.74284770","80.66875800"
"Bomluwageaina","70344","6.70557420","80.38473450"
"Bowalagama","82458","6.67928120","80.40647070"
"Bulutota","70346","6.47066510","80.61208900"
"Dambuluwana","70019","6.70183190","80.32688120"
"Daugala","70455","6.70557420","80.38473450"
"Dela","70042","6.62049340","80.45420740"
"Delwala","70046","6.51666700","80.46666700"
"Dodampe","70017","6.74794090","80.31465020"
"Doloswalakanda","70404","6.57442010","80.45060660"
"Dumbara Manana","70495","6.68239770","80.24271850"
"Eheliyagoda","70600","6.84856380","80.26001000"
"Ekamutugama","70254","6.67008500","80.39535200"
"Elapatha","70032","6.65911030","80.37004070"
"Ellagawa","70492","6.73322300","80.21481700"
"Ellaulla","70552","6.70557420","80.38473450"
"Ellawala","70606","6.80892830","80.26279730"
"Embilipitiya","70200","6.31623240","80.84331450"
"Eratna","70506","6.83500650","80.40830880"
"Erepola","70602","6.80329990","80.24607180"
"Gabbela","70156","6.51347930","80.54662290"
"Gangeyaya","70195","6.37398870","80.83777890"
"Gawaragiriya","70026","6.65040560","80.26279730"
"Gillimale","70002","6.75193930","80.42670370"
"Godakawela","70160","6.50490600","80.65211390"
"Gurubewilagama","70136","7.87305400","80.77179700"
"Halwinna","70171","6.70557420","80.38473450"
"Handagiriya","70106","6.55213540","80.78240120"
"Hatangala","70105","6.54269300","80.74005370"
"Hatarabage","70108","6.65824100","80.74914430"
"Hewanakumbura","90358","7.30570880","80.67377420"
"Hidellana","70012","6.71422580","80.38604590"
"Hiramadagama","70296","6.53431270","80.60354940"
"Horewelagoda","82456","6.72834120","80.39381100"
"Ittakanda","70342","6.40196150","80.63824130"
"Kahangama","70016","6.71312360","80.35647920"
"Kahawatta","70150","6.57553120","80.57457300"
"Kalawana","70450","6.53171360","80.39648240"
"Kaltota","70122","6.65939600","80.87098720"
"Kalubululanda","90352","6.72834120","80.39381100"
"Kananke Bazaar","80136","6.01876550","80.44209920"
"Kandepuhulpola","90356","6.83668260","80.86822030"
"Karandana","70488","6.78270350","80.21839510"
"Karangoda","70018","6.67757110","80.39578850"
"Kella Junction","70352","6.36110440","80.69191190"
"Keppetipola","90350","7.16325170","80.57053960"
"Kiriella","70480","6.72950380","80.27046020"
"Kiriibbanwewa","70252","6.37767420","80.97191080"
"Kolambage Ara","70180","6.41835640","80.78032380"
"Kolombugama","70403","6.56783560","80.49382670"
"Kolonna","70350","6.40528450","80.68522530"
"Kudawa","70005","6.44335460","80.41705720"
"Kuruwita","70500","6.82184030","80.36150790"
"Lellopitiya","70056","6.66396700","80.48409740"
"Imaduwa","80130","6.03598780","80.39039020"
"Imbulpe","70134","6.70081730","80.75331260"
"Mahagama Colony","70256","7.37879790","80.38395840"
"Mahawalatenna","70112","6.58708770","80.74860620"
"Makandura","70298","6.55328880","80.63130410"
"Malwala Junction","70001","6.68217430","80.40973490"
"Malwatta","32198","6.50997090","80.64101600"
"Matuwagalagama","70482","6.70557420","80.38473450"
"Medagalature","70021","6.67757110","80.39578850"
"Meddekanda","70127","6.67524330","80.65904940"
"Minipura Dumbara","70494","6.71593270","80.21391730"
"Mitipola","70604","6.83459390","80.22376600"
"Moragala Kirillapone","81532","6.85774360","80.25582880"
"Morahela","70129","6.68509810","80.69094480"
"Mulendiyawala","70212","6.28868400","80.77132100"
"Mulgama","70117","6.66605170","80.81765100"
"Nawalakanda","70469","6.24460700","80.14345730"
"Nawinnapinnakanda","70165","6.70557420","80.38473450"
"Niralagama","70038","6.70557420","80.38473450"
"Nivitigala","70400","6.59588500","80.45776700"
"Omalpe","70215","6.32676260","80.69649050"
"Opanayaka","70080","6.62375960","80.68743720"
"Padalangala","70230","6.24917790","80.91524340"
"Pallebedda","70170","6.48273980","80.70644890"
"Pallekanda","82454","6.63603730","80.68123880"
"Pambagolla","70133","6.69048710","80.37989330"
"Panamura","70218","6.34352750","80.77319320"
"Panapola","70461","6.43003730","80.44934050"
"Paragala","81474","6.59648320","80.33802130"
"Parakaduwa","70550","6.82570290","80.30738260"
"Pebotuwa","70045","6.52792350","80.45381770"
"Pelmadulla","70070","6.63448470","80.52995410"
"Pinnawala","70130","7.30097050","80.38715630"
"Pothdeniya","81538","6.70824960","80.38266440"
"Rajawaka","70116","6.60274090","80.80732590"
"Ranwala","70162","6.54729140","80.66321030"
"Rassagala","70135","6.69234870","80.63789450"
"Rathgama","80260","6.71516980","80.46888050"
"Ratna Hangamuwa","70036","6.64236010","80.39091640"
"Ratnapura","70000","6.69514540","80.37274290"
"Sewanagala","70250","6.35989160","80.91956050"
"Sri Palabaddala","70004","6.78906410","80.46046430"
"Sudagala","70502","6.80890880","80.39369940"
"Thalakolahinna","70101","6.70557420","80.38473450"
"Thanjantenna","70118","6.63349430","80.84573630"
"Theppanawa","70512","6.74944380","80.34602730"
"Thunkama","70205","6.27825950","80.88827770"
"Udakarawita","70044","6.59280220","80.45945050"
"Udaniriella","70034","6.72950380","80.27046020"
"Udawalawe","70190","6.40556190","80.80205430"
"Ullinduwawa","70345","6.37019760","80.62714150"
"Veddagala","70459","6.46458460","80.43202860"
"Vijeriya","70348","6.41732680","80.65359580"
"Waleboda","70138","6.72651570","80.66400360"
"Watapotha","70408","6.72834120","80.39381100"
"Waturawa","70456","6.49853270","80.44456110"
"Weligepola","70104","6.57180590","80.70480840"
"Welipathayaya","70124","6.61981170","80.87375390"
"Wikiliya","70114","6.62149100","80.75054170"
"Agbopura","31304","8.33139520","80.97648920"
"Buckmigama","31028","8.58736380","81.21521210"
"China Bay","31050","8.56292020","81.19900940"
"Dehiwatte","31226","8.58736380","81.21521210"
"Echchilampattai","31236","8.58736380","81.21521210"
"Galmetiyawa","31318","8.58736380","81.21521210"
"Gomarankadawala","31026","8.67503840","80.96324230"
"Kaddaiparichchan","31212","8.45435440","81.29179710"
"Kallar","30250","8.58736380","81.21521210"
"Kanniya","31032","8.59878050","81.18715150"
"Kantalai","31300","8.35126340","81.00699280"
"Kantalai Sugar Factory","31306","8.31672220","81.04672190"
"Kiliveddy","31220","8.36183610","81.28427020"
"Kinniya","31100","8.50254730","81.18038320"
"Kuchchaveli","31014","8.82138500","81.09478080"
"Kumburupiddy","31012","8.73568790","81.16096790"
"Kurinchakerny","31112","8.50191580","81.17199360"
"Lankapatuna","31234","8.35736110","81.38962220"
"Mahadivulwewa","31036","8.61738580","80.96427730"
"Maharugiramam","31106","8.58736380","81.21521210"
"Mallikativu","31224","8.58736380","81.21521210"
"Mawadichenai","31238","8.60944630","81.21638370"
"Mullipothana","31312","8.42867990","81.05614580"
"Mutur","31200","8.45790650","81.26840190"
"Neelapola","31228","8.37006770","81.22434440"
"Nilaveli","31010","8.69273310","81.18852930"
"Pankulam","31034","8.62513020","81.03267950"
"Pulmoddai","50567","8.94455220","80.98267180"
"Rottawewa","31038","8.59950020","80.92170210"
"Sampaltivu","31006","8.63659760","81.22304850"
"Sampoor","31216","8.48224360","81.28937930"
"Serunuwara","31232","8.32497340","81.30074050"
"Seruwila","31260","8.37057000","81.31991360"
"Sirajnagar","31314","8.58736380","81.21521210"
"Somapura","31222","8.29801560","81.27665980"
"Tampalakamam","31046","8.49737520","81.09202180"
"Thuraineelavanai","30254","7.44730640","81.79920570"
"Tiriyayi","31016","6.94064680","79.86132860"
"Toppur","31250","8.40458120","81.31243410"
"Trincomalee","31000","8.58736380","81.21521210"
"Wanela","31308","8.38173830","81.07960500"
"Vavuniya","43000","8.75420290","80.49824020"
"Colombo 1","00100","6.87587000","79.86067390"
"Colombo 3","00300","6.89893440","79.85376720"
"Colombo 4","00400","6.89613350","79.85714750"
"Colombo 5","00500","6.88879470","79.86630240"
"Colombo 7","00700","6.91166520","79.86456780"
"Colombo 9","00900","6.93677080","79.86078060"
"Colombo 10","01000","6.92770380","79.86608360"
"Colombo 11","01100","6.93904180","79.85331900"
"Colombo 12","01200","6.93863620","79.86091740"
"Colombo 14","01400","6.94476020","79.86802080"
"Colombo Secretariant","00110","6.93883020","79.85597300"
"Melle Street","00276","6.92707860","79.86124300"
"Rifel Street","00279","6.92381440","79.85049130"
"Gem & Jewelry","00370","6.93265290","79.84416100"
"Torington Square","00376","6.90353830","79.86810980"
"National Museum of Colombo","00377","6.91045550","79.86099250"
"Colombo Labour Sec","00510","6.89200690","79.87642540"
"Polhengoda","00576","6.88105880","79.88013350"
"Anderson Plats","00577","6.89017040","79.87296210"
"Keppetipola Mawatha","00579","6.92800620","79.88757070"
"Narahenpita","00582","6.89759340","79.88148300"
"Kirulapana","00677","6.88147170","79.87634760"
"University of Colombo","00710","6.90001490","79.85879380"
"Colombo General Hospital","00779","6.91874290","79.86899200"
"Gothami Road","00876","6.91453560","79.88735650"
"Wanathamulla","00877","6.92670930","79.88148300"
"Baseline Road","00878","6.93279660","79.87817750"
"Kopiyawatta","00879","6.93369020","79.87874170"
"Maligawatta","01070","6.93727160","79.87175120"
"Panchikawatte","01078","6.93096820","79.86398350"
"Sarasavipaya","01079","6.90804600","79.87598160"
"Maligakanda","01081","6.92841060","79.86818370"
"Wolfendal Street","01178","6.93963520","79.85430140"
"Pettah Bus Stand","01179","6.93500540","79.85456970"
"Colombo Kachcheri","01181","6.93840050","79.85555210"
"Armour Street","01182","6.94242220","79.86376180"
"St. Anthony's","01183","6.93171040","79.87376180"
"Miraniya Street","01276","6.93696440","79.86364710"
"Wasala Road","01377","6.95118770","79.86498570"
"Nagalagam Street","01476","6.95527300","79.87651510"
"Aluth Mawatha Road","01478","6.96952880","79.87322490"
"Mutwal South","01479","6.96692470","79.87115330"
"Beddagana","10101","6.89149910","79.90908710"
"Madiwela","10102","6.87731530","79.92346780"
"Sri Perakumpura","10103","8.15285510","80.14564960"
"Mirihana North","10104","6.87966520","79.90947510"
"Nawala-Koswatte","10105","6.90053750","79.89548020"
"Nawala","10106","6.89641910","79.88848190"
"Rajagiriya","10107","6.90941080","79.89425380"
"Parliament of Sri Lanka","10110","6.93110950","79.84302960"
"Obeysekarapura","10111","6.91330980","79.89026360"
"Kalapaluwawa","10112","6.91655310","79.92083240"
"Talangama North","10113","6.91687820","79.93173020"
"Talangama South","10114","6.88675520","79.94759990"
"Jayawardhenegama","10117","6.92707860","79.86124300"
"Isurupaya","10130","6.92918770","79.86394890"
"Sethsiripaya","10140","6.90327690","79.91542220"
"Malabe","10155","6.90607870","79.96962770"
"Oruwala","10201","6.88290380","80.00038750"
"Panagoda Army Camp","10203","6.86561170","80.02764270"
"Magammana-Dolekade","10207","6.82178770","79.99838110"
"Homagama Town","10209","6.84327620","80.00318330"
"Godagama Junction","10211","6.85167240","80.03273340"
"Panagoda","10213","6.86561170","80.02764270"
"Galawilawaththa","10217","6.83646020","79.99339760"
"Kottawa","10220","6.84116520","79.96543240"
"Pelenwatta","10231","6.82353930","79.94445260"
"Arawwala West","10233","6.83824460","79.94407100"
"Kottawa North","10235","6.86147310","79.95634170"
"Rukmale-Pannipitiya","10237","6.85597580","79.97801780"
"Malapalla","10239","6.84680570","79.98221260"
"Mattegoda","10240","6.81354880","79.97242450"
"Mirihana","10251","6.86896470","79.90387740"
"Udahamulla","10252","6.86655590","79.91507240"
"Kohuwala","10255","6.86248420","79.88549830"
"Pamunuwa-Patiragoda","10281","6.86166890","79.92892900"
"Sudanapura","10282","6.87830600","80.24325360"
"Nawinna","10283","6.85333090","79.91507240"
"Vidyodaya University","10284","6.90522350","79.85125590"
"Pepiliyana","10291","6.85381660","79.88508760"
"Katuwawala","10292","6.83211780","79.91227380"
"Suwarapola","10301","6.79787420","79.91787090"
"Gorakapitiya","10303","6.81437460","79.94864890"
"Makandana","10305","6.77693190","79.95111430"
"Kesbewa","10307","6.77867010","79.94725020"
"Bokundara","10309","6.81643270","79.92066940"
"Kahathuduwa","10321","6.78229800","79.99479560"
"Ratmalana North","10372","6.82138560","79.89012960"
"Sirimal Uyana","10373","6.82677000","79.87798340"
"Ratmalana","10390","6.81879540","79.87101950"
"Koralawella","10401","6.75779280","79.88737000"
"Egodauyana North","10402","6.72094140","79.90107840"
"Egodauyana South","10403","6.72094140","79.90107840"
"Indibedda","10404","6.77380480","79.90387740"
"Moratumulla","10405","6.78084970","79.89338070"
"Rawathawatta","10406","6.79188690","79.88428260"
"Willorawatta","10407","6.78687850","79.90098840"
"Lunawa","10408","6.78648590","79.87868330"
"Laksapatiya","10409","6.92707860","79.86124300"
"Angulana","10411","6.79761140","79.87378360"
"Kaldemulla","10413","6.80562650","79.87798340"
"Katubedda","10414","6.80145720","79.89967890"
"Liyanwala","10501","6.83690770","80.07863590"
"Poregedara","10503","6.82250470","80.08561890"
"Dampe","10505","6.77178680","79.91591810"
"Malagala","10507","6.79517150","80.10656460"
"Meepe Junction","10509","6.76749490","80.84717490"
"Pinnawala-Waga","10515","6.86720730","80.12094220"
"Angampitiya","10517","6.84700310","80.11912960"
"Arukwathupura","10519","6.87102580","79.93885710"
"Kandanapitiya","10523","6.81523830","80.15173220"
"Gurulana","10527","6.83457760","80.15820880"
"Udugamkanda","10529","7.13764480","80.09289820"
"Wattala","11300","6.98601320","79.90701560"
"Bulnewa","50172","8.04139230","80.44655940"
"Kebithigollewa","50550","8.64089160","80.66968160"
"Madipola","21156","7.67611540","80.58272720"
"Karatota","81308","6.06412720","80.66600920"
"Gangulandeniya","82506","6.29562990","80.71866970"
"Idalgashinna","90167","6.78296900","80.90003310"
"Allaipiddi","40048","9.61988780","79.96543240"
"Allaveddi","40120","9.66149810","80.02554650"
"Alvai","40635","9.82086330","80.20424360"
"Anaikoddai","40198","9.69635430","79.99479560"
"Analaitivu","40280","9.66790030","79.77643370"
"Araly","40221","9.70620780","79.95564240"
"Atchuveli","40150","9.77863970","80.11606510"
"Chankanai","40212","9.74522360","79.97242450"
"Chavakachcheri","40500","9.66646000","80.13209180"
"Chullipuram","40230","9.76592620","79.94623750"
"Chundikuli","40020","9.65349270","80.03393120"
"Chunnakam","40075","9.73756340","80.02450490"
"Delft West","40378","9.52769110","79.69985740"
"Delft","40370","9.52769110","79.69985740"
"Eluvaitivu","40275","9.69231050","79.81146400"
"Erialai","40080","9.63829020","80.07863590"
"Ilavalai","40108","9.79527530","79.98920340"
"Kankesanthurai","40190","9.81611050","80.04478780"
"Karainagar","40250","9.74807380","79.88288280"
"Karaveddi","40520","9.80006730","80.19941820"
"Kayts","40270","9.69789370","79.86048310"
"Kodikamam","40700","9.68449040","80.22201770"
"Kokuvil","40060","9.69082400","80.02114300"
"Kondavil","40062","9.70300070","80.03393120"
"Kopay","40170","9.70430280","80.07863590"
"Kudatanai","40620","9.66149810","80.02554650"
"Mallakam","40142","9.76188640","80.02414890"
"Mandaitivu","40045","9.61653910","79.99199950"
"Manipay","40200","9.72910620","79.99254460"
"Mathagal","40110","9.78601780","79.96613080"
"Meesalai","40510","9.67466610","80.19587550"
"Mahiyampathy",NULL,"9.66207980","80.01189260"
"Mirusuvil","40750","9.66770280","80.23401800"
"Nagarkovil","40630","9.70309500","80.31371060"
"Nagendramadam","40223","9.66149810","80.02554650"
"Nainathivu","40360","9.61901230","79.77487620"
"Neervely","40165","9.72106990","80.08469440"
"Pandaterippu","40100","9.77825690","79.97242450"
"Point Pedro","40600","9.79378850","80.22097730"
"Puloly","40615","9.81728290","80.23526810"
"Pungudutivu","40330","9.58964650","79.82407150"
"Puttur","40158","9.73308980","80.10003760"
"Sandilipay","40098","9.74933600","79.98738320"
"Sangarathai","40225","9.72854720","79.96683080"
"Sithankerny","40229","9.75365500","79.96177550"
"Sivankovilady","40227","9.67130510","80.01155680"
"Thellippallai","40130","9.79108750","80.03393120"
"Thondamanaru","40545","9.81840780","80.13696540"
"Urumpirai","40180","9.72031900","80.04304180"
"Vaddukoddai","40220","9.72238430","79.94445260"
"Valvettithurai","40540","9.81493700","80.16608040"
"Varany","40640","9.66649990","80.01096540"
"Vasavilan","40145","9.78830650","80.07007120"
"Velanai","40300","9.63724050","79.90107840"
"Gurunagar",NULL,"9.65355890","80.01695030"
"Kaitadi",NULL,"9.67146140","80.09644150"
"Nallur",NULL,"9.67015470","80.03952050"
"Thirunelvely",NULL,"9.68257550","80.03699480"
"Vannarponnai",NULL,"9.68384070","80.01366670"
"Akkarayankulam","42640","9.32614520","80.30181070"
"Aliyawalai","42565","9.58818920","80.44655940"
"Chempiyanpattu","42560","9.38028860","80.37699990"
"Elephant Pass","42510","9.52566550","80.40622650"
"Eluthumadduval","42580","9.65623000","80.28316680"
"Iranaitiv","42630","9.28993290","79.98361080"
"Iyyakachchi","42520","9.57152350","80.41619680"
"Kavutharimunai","42608","9.56666700","80.11666700"
"Konavil","42645","9.35149910","80.32688120"
"Mulliyan","42570","9.55313190","80.47158660"
"Murasumoddai","42505","9.43792020","80.45281690"
"Pallavarayankaddu","42615","9.31432200","80.17076620"
"Paranthan","42500","9.44141520","80.40483060"
"Puliyampokkanai","42509","9.44104490","80.53125230"
"Punakari-Nallur","42606","9.45027570","80.27812620"
"Ramanathapuram","42408","9.36699420","80.49382670"
"Sivapuram","42618","9.44587530","80.41735140"
"Skanthapuram","42638","9.33710780","80.30181070"
"Thalaiyadi","42563","9.63045850","80.40285230"
"Tharmapuram","42512","9.41065240","80.52336360"
"Uruthirapuram","42502","9.39865250","80.34637540"
"Vaddakachchi","42405","9.36139060","80.46667320"
"Vannerikkulam","42635","9.38028860","80.37699990"
"Veravil","42620","9.35284760","80.07863590"
"Vinayagapuram","42625","9.11384010","80.24328390"
"Ambalnagar",NULL,"9.34577150","80.41874250"
"Cheddiyakurichchi",NULL,"9.37272850","80.41178570"
"Chundikulam",NULL,"9.51416670","80.53222220"
"Kalmadunagar",NULL,"9.37856530","80.51606080"
"Karadipokku",NULL,"9.40863720","80.40644470"
"Kilay",NULL,"9.38975610","80.40650010"
"Kunchuparanthan",NULL,"9.41087790","80.33826070"
"Muhamalai",NULL,"9.64717690","80.29345220"
"Pallai","42550","9.56732280","80.38813330"
"Sivanagar",NULL,"9.38893750","80.34219840"
"Soranpattu",NULL,"9.59702640","80.36864880"
"Thirunagar",NULL,"9.39438340","80.39091640"
"Thiruvaiaru",NULL,"9.37616450","80.42708850"
"Alampil","42005","9.18157970","80.84608220"
"Karuppaddamurippu","42220","9.15264030","80.52022900"
"Mankulam","42300","9.13698850","80.44516870"
"Mullivaikkal","42540","9.31196020","80.78659060"
"Mulliyawalai","42100","9.21921510","80.76439520"
"Muththaiyankaddukulam","42210","9.26709110","80.81424800"
"Naddankandal","42308","9.00401300","80.22097730"
"Oddusudan","42200","9.15386780","80.64973120"
"Puthukkudiyiruppu","42530","9.31579980","80.69262120"
"Puthuvedduvan","42330","9.24754080","80.33245140"
"Thunukkai","42320","9.13404860","80.28626360"
"Udayarkaddu","42518","9.31318210","80.58411550"
